stopID,name,lat,lon
410000014617,Buddle Road Violet Close,54.966860,-1.662170
410000008281,Slatyford Pooley Road,54.991030,-1.677110
410000008282,Pooley Road-Thirlmere Way,54.989460,-1.679340
410000008283,Pooley Road-Wasdale Road,54.987480,-1.681000
410000008284,Slatyford Lane-Pooley Road,54.986240,-1.681120
410000008285,Slatyford Lane-Keswick Grove,54.985510,-1.684300
410000008286,Slatyford Lane,54.983990,-1.687160
410000008179,Denton Road-West Road,54.982290,-1.685690
410000008180,Whickham View Denton Rd,54.980620,-1.688750
410000013526,Denton Road-Dorset Road,54.977270,-1.692970
410000013524,Denton Road-Woodstock Road,54.974910,-1.693050
410000013522,St. Margarets Church,54.972130,-1.691380
410000014634,Armstrong Road-Nutley Place,54.971690,-1.688480
410000014632,Armstrong Road-Robert Street,54.971170,-1.685000
410000014630,Armstrong Road-Ranmere Road,54.970780,-1.681070
410000014628,Armstrong Road-Delaval Road,54.970240,-1.674870
410000014626,Armstrong Road-Hodgkin Park Road,54.969930,-1.670350
410000014624,Armstrong Road-Bishops Road,54.969390,-1.664140
410000014998,Armstrong Road - Atkinson Road,54.969090,-1.662100
410000014622,Armstrong Road-Hugh Gardens,54.968590,-1.657160
410000014620,Armstrong Road-Caroline Street,54.968270,-1.654050
410000014612,St Johns Road,54.966240,-1.651850
410000014610,St Johns Road-Amelia Close,54.965960,-1.649140
410000014608,Westmorland Road-St Josephs,54.965830,-1.644380
410000014606,Westmorland Road-Brunel Terrace,54.965850,-1.640390
410000014604,Cruddas Park Shops,54.966320,-1.636930
410000014602,Westmorland Road-Hawthorn Terrace,54.967110,-1.633930
410000014600,Westmorland Road-Rye Hill,54.968020,-1.630700
410000014902,Discovery Museum,54.969194,-1.623870
41000008NC86,Central Stn Clayton St,54.969263,-1.619786
41000008NC82,Central Stn Westgate Rd,54.970000,-1.616870
41000008NC47,Monument Market Street,54.972750,-1.613470
41000008NC38,Pilgrim Street,54.974050,-1.611670
41000008NC74,John Dobson Street,54.976720,-1.610970
410000015640,Northumbria University,54.978760,-1.609450
410000009029,Jesmond Archbald Terrace,54.980930,-1.604730
410000009154,Sandyford,54.980840,-1.601550
410000009155,Portland Street-Warwick Street,54.979060,-1.599470
410000009156,Warwick Street-Stadium,54.979280,-1.594670
410000009157,Warwick Street-Stratford Road,54.980440,-1.590250
410000009158,Heaton Park Road-Warwick Street,54.981120,-1.587590
410000009954,Heaton Park Road-Cardigan Terrace,54.980050,-1.586480
410000009952,Heaton North View,54.978860,-1.584220
410000009212,Heaton Road-Cardigan Terrace,54.981450,-1.581230
410000009161,Second Avenue-Mundella Terrace,54.982810,-1.578950
410000009162,Second Avenue-King John Street,54.984670,-1.579300
410000009163,Simonside Terrace,54.986440,-1.576380
410000009164,Simonside Terrace-Addycombe Terrace,54.986420,-1.573990
410000009165,Whitefield Terrace-Warton Terrace,54.987330,-1.570610
410000009166,Whitefield Terrace-Sackville Road,54.990200,-1.571080
410000009167,Debdon Gardens,54.991230,-1.568380
410000009945,Rothbury Terrace,54.991660,-1.564000
410000009168,Benfield Road-Bosworth Gardens,54.992820,-1.564410
410000009169,Red Hall Dr Coast Rd,54.995480,-1.567140
410000009504,Red Hall Drive - Felixstowe Drive,54.999110,-1.569560
410000009505,Coach Lane Campus,55.002340,-1.571910
410000009923,Coach Lane Campus,55.006050,-1.570030
410000009501,Coach Lane Campus,55.001730,-1.571390
410000009173,Red Hall Drive - Felixstone Avenue,54.998170,-1.568990
410000009174,Red Hall Drive Lonsdale,54.996870,-1.568510
410000009175,Benfield Road-Coast Road,54.993630,-1.565270
410000009176,Benfield Rd Rothbury Terr,54.992450,-1.564030
410000009946,Rothbury Terrace,54.991370,-1.564210
410000009177,Debdon Gardens,54.991230,-1.568380
410000009178,Whitefield Terrace-Sackville Road,54.990430,-1.570890
410000009179,Whitefield Terrace-Warton Terrace,54.987000,-1.570560
410000009180,Simonside Terrace-Addycombe Terrace,54.986430,-1.573380
410000009181,Simonside Terrace,54.986440,-1.576350
410000009152,Chillingham Road-Ninth Avenue,54.984060,-1.576020
410000009153,Chillingham Rd Shields Rd,54.980730,-1.574660
410000009005,Shields Road Chillingham Road,54.980950,-1.572930
410000009182,Second Avenue-Tenth Avenue,54.984360,-1.579230
410000009183,Second Avenue-Seventh Avenue,54.982580,-1.578910
410000009476,Heaton Road-Cheltenham Terrace,54.981250,-1.581110
410000009953,Heaton North View,54.979110,-1.583450
410000009955,Heaton Park Road-Heaton Park Court,54.979160,-1.585570
410000009186,Heaton Park Road-Hotspur Street,54.980700,-1.587140
410000009187,Warwick Street-Stratford Road,54.980110,-1.591300
410000009188,Warwick St Star & Shadow,54.979280,-1.594700
410000009951,Portland Road-Shield Court,54.979500,-1.600010
410000009189,Sandyford,54.980390,-1.601040
410000009055,Jesmond Archbald Terrace,54.980820,-1.604880
410000009465,Sandyford Road-Civic Centre,54.979030,-1.609460
4100008NC105,John Dobson Street,54.976480,-1.610850
41000008NC37,Pilgrim Street,54.973845,-1.611358
41000008NC55,Grainger Street Stop 55,54.971320,-1.615130
41000008NC94,Central Stn Neville St,54.969320,-1.616560
410000014903,Westmorland Rd Discovery,54.968570,-1.625210
410000014601,Westmorland Road-Rye Hill,54.968250,-1.629850
410000014603,Westmorland Road-Hawthorn Terrace,54.967180,-1.633660
410000014605,Cruddas Park Shops,54.966280,-1.637150
410000014607,Westmorland Road-Brunel Terrace,54.965890,-1.640000
410000014609,Westmorland Road-St Josephs,54.965800,-1.643940
410000014611,St Johns Road-Amelia Walk,54.965850,-1.648270
410000014613,Buddle Road,54.966330,-1.654540
410000014615,Buddle Road-Merton Court,54.966420,-1.657240
410000014619,St Johns Road,54.967070,-1.653360
410000014621,Armstrong Road-Caroline Street,54.968310,-1.654390
410000014623,Armstrong Road-Ethel Street,54.968790,-1.659210
410000014625,Armstrong Road-Atkinson Road,54.969260,-1.663170
410000014627,Armstrong Road-Woodland Crescent,54.969940,-1.670500
410000014629,Armstrong Road-Cranbrook Road,54.970370,-1.676280
410000014631,Armstrong Road-Whitehouse Road,54.970930,-1.682490
410000014633,Armstrong Road-Robert Street,54.971230,-1.685510
410000013520,Armstrong Road-Ouston Street,54.971970,-1.690370
410000013521,St. Margarets Church,54.972150,-1.691930
410000013523,Denton Road-Bankside Road,54.973500,-1.692830
410000013525,Denton Road-Denton Dene,54.975110,-1.693140
410000013527,Denton Road-Swinley Gardens,54.977890,-1.692740
410000008165,Whickham View Denton Rd,54.980880,-1.688410
410000008166,Denton Road-West Road,54.982260,-1.685770
410000008275,Denton Burn Slatyford Ln,54.984140,-1.686900
410000008276,Slatyford Lane-Haydon Place,54.985680,-1.683620
410000008277,Slatyford Lane-Pooley Road,54.986320,-1.680760
410000008278,Pooley Road-Wasdale Road,54.987830,-1.680970
410000008279,Pooley Road-Thirlmere Way,54.989700,-1.678950
079073001C,Bus Station Stand 3,54.576310,-1.240338
079073278A,Town Hall,54.575430,-1.234840
079073169A,Teesside University,54.572830,-1.235440
079073168A,Myrtle Street,54.572380,-1.229670
079073243B,Elstone Road,54.571910,-1.223600
079073179A,Market Place,54.570630,-1.214410
079073180A,Working Mens Club,54.568940,-1.211160
079073361C,The Buccaneer,54.567480,-1.209860
079073357A,"Ormesby Road, Buccaneer",54.566040,-1.208610
079073208A,Dixon Grove,54.564280,-1.206910
079073354A,"Berwick Hills, Homerton Road",54.561630,-1.201990
079073206B,Middlebeck Social Club,54.562690,-1.197060
079073205A,Eltisley Green,54.563480,-1.192800
079073220B,Hatherley Court,54.565480,-1.187970
079073221B,Thorntree Job Centre,54.565700,-1.183410
079073222B,Loxley Road,54.563290,-1.180810
079073223B,Primary School,54.561720,-1.180050
079073224A,Shrewsbury Road,54.558590,-1.180290
079073225B,Durnford Road,54.557250,-1.184040
079073233A,The Greenway South End,54.555810,-1.186490
079073232A,Leamington Grove,54.552980,-1.182140
079073365A,Ormesby Post Office,54.551750,-1.181190
078074647B,Stapleford Road,54.552330,-1.175000
078074638B,Spencerbeck Farm,54.553570,-1.168950
078074637B,Normanby Hall Park,54.555050,-1.162320
078074692B,"Normanby Top, High Street",54.557440,-1.156040
078074074B,Woodgarth,54.559200,-1.150800
078074690B,Chancel Way,54.559640,-1.148860
078074691B,Albert Road,54.562450,-1.152210
078074682B,Eston Church Lane,54.565470,-1.152680
078074681B,Eston Hotel,54.564990,-1.157400
078074635A,Sycamore Crescent,54.563820,-1.161200
078074634A,The Avenue,54.565310,-1.162900
078074633A,Civic & Learning Centre,54.567630,-1.165220
078074632A,Eston Baths Normanby Road,54.569370,-1.166910
078074064A,St Peter's Catholic Voluntary Academy,54.571820,-1.168970
078074629A,Bevanlee Road,54.575660,-1.171770
078074628A,South Bank,54.577920,-1.173260
078074624A,South Bank Middlesbrough Road,54.579510,-1.174470
078074068B,Telephone Exchange,54.576920,-1.156870
078074676A,Grangetown Broadway,54.575780,-1.149790
078074925A,St Davids Road,54.577680,-1.143570
078074054A,Asda Dist. Centre,54.604340,-1.138230
078074055A,Tesco Dist. Centre,54.606680,-1.142150
078074925B,St Davids Road,54.577350,-1.144400
078074676B,Youth and Community Centre,54.575370,-1.150980
078074068A,Telephone Exchange,54.576070,-1.156140
078074624B,South Bank,54.580080,-1.174880
078074628B,Golden Boy Green,54.577820,-1.173200
078074629B,Bevanlee Road,54.575440,-1.171630
078074064B,St Peter's Catholic Voluntary Academy,54.573450,-1.170140
078074065A,South Bank Library,54.570770,-1.168210
078074632B,Eston Baths Normanby Road,54.569170,-1.166720
078074633B,Civic & Learning Centre,54.567260,-1.164870
078074634B,The Avenue,54.565040,-1.162590
078074635B,Sycamore Crescent,54.563820,-1.161200
078074681A,Eston Hotel,54.565580,-1.156500
078074682A,Eston Church Lane,54.565730,-1.152690
078074691A,Albert Road,54.562660,-1.152390
078074690A,Chancel Way,54.559640,-1.148860
078074074A,Woodgarth,54.559140,-1.151360
078074692A,"Normanby Top, High Street",54.557390,-1.156410
078074637A,Normanby Hall Park,54.554410,-1.164830
078074638A,Spencerbeck Farm,54.553080,-1.171320
078074647A,Stapleford Road,54.552210,-1.175390
079073365B,Ormesby Post Office,54.550570,-1.180240
079073232B,Leamington Grove,54.553260,-1.182470
079073233C,The Greenway South End,54.556670,-1.186160
079073225A,Durnford Road,54.557430,-1.183420
079073224B,Shrewsbury Road,54.557960,-1.181550
079073223A,Primary School,54.560220,-1.180030
079073222A,Loxley Road,54.563350,-1.180860
079073221A,Thorntree Job Centre,54.565700,-1.183410
079073220A,Hatherley Court,54.565190,-1.188850
079073205B,Eltisley Green,54.563390,-1.193170
079073206A,Middlebeck Social Club,54.562700,-1.197760
079073355A,"Berwick Hills, Norfolk Place",54.562170,-1.204800
079073357B,"Ormesby Road, Bailey Grove",54.565140,-1.207740
079073361B,The Buccaneer,54.567360,-1.209760
079073180B,Working Mens Club,54.569400,-1.211610
079073179C,Market Place,54.570870,-1.214660
079073243A,Elstone Road,54.571890,-1.223310
079073168B,Myrtle Street,54.572380,-1.229670
079073169B,Teesside University,54.572750,-1.234310
079073327B,Amber Street,54.573099,-1.238737
410000007177,West Denton Park Combe Dr,54.981540,-1.724830
410000007178,West Denton Park Valley View,54.983690,-1.719870
410000007094,Union Hall Road-Hospital Lane,54.985990,-1.712400
410000007095,Union Hall Road-West Road,54.987240,-1.712150
410000007163,Lemington Road Ends,54.988590,-1.710880
410000007024,A69-The Burnside,54.987270,-1.704260
410000007025,West Road-South View,54.986190,-1.698880
410000007026,West Road-A1,54.984680,-1.692280
410000008044,Denton Burn Library,54.983070,-1.686330
410000008043,West Road- Denton Burn Hotel,54.982350,-1.683590
410000008041,Newcastle Crematorium,54.980910,-1.678030
410000008040,West Road-Fox And Hounds,54.979010,-1.670730
410000014520,West Road-Roman Fort,54.977530,-1.664870
410000014518,West Road-College,54.976730,-1.660540
410000014516,West Road-Shipley Avenue,54.976050,-1.656220
410000014512,West Road-The Plaza,54.975260,-1.651360
410000014510,Westgate Walk-In Centre,54.974590,-1.647260
410000014506,General Hospital,54.974100,-1.644230
410000014504,Westgate Road-Gloucester Road,54.973260,-1.638370
410000014502,Westgate Road-Elswick Street,54.972280,-1.632680
410000014500,Westgate Road-Tindal Street,54.971830,-1.630140
4100008NC104,Westgate Rd-Rutherford St,54.970790,-1.622160
41000008NC83,Central Stn Westgate Rd,54.970130,-1.617870
41000008NC53,Central Stn Grainger St,54.970290,-1.616070
41000008NC40,Pilgrim Street,54.973720,-1.611490
41000008NC77,St Mary's Place,54.977830,-1.613090
41000008NC04,Haymarket Barras Bridge,54.978830,-1.613310
41000008NC02,Claremont Road Merz Court,54.981440,-1.615990
410000008930,Claremont Rd-Claremont Pl,54.982110,-1.618080
410000008934,Claremont Rd-St Mary Magdalene,54.986170,-1.631960
410000008364,Kenton Road-Montagu Avenue,54.996170,-1.629330
410000008365,Kenton Road-Kenton Avenue,54.998890,-1.630970
410000008366,Kenton Road-Northumberland Avenue,55.000140,-1.635150
410000008293,Kenton Park Shops,55.002700,-1.638980
410000008294,Kenton Lane-Eastwood Gardens,55.004350,-1.642290
410000008295,Kenton Lane-The Crossway,55.004070,-1.647200
410000008296,Kenton Lane-The Ridgeway,55.003860,-1.650550
410000008991,North Kenton Shops,55.005350,-1.653890
410000008405,Hillsview Avenue-Bradwell Road,55.007130,-1.656460
410000008406,Hillsview Avenue-Shandon Way,55.009960,-1.655780
410000008407,Hillsview Avenue-Newlyn Road,55.010020,-1.650430
410000008408,North Kenton Delamere Rd,55.009510,-1.647320
410000008409,Hillsview Avenue-Newlyn Road,55.010200,-1.651100
410000008410,Hillsview Avenue-Shandon Way,55.009930,-1.655830
410000008411,Hillsview Avenue-Bradwell Road,55.006970,-1.656500
410000008412,North Kenton Shops,55.005700,-1.652140
410000008329,Kenton Lane-Westwood Gardens,55.003960,-1.649000
410000008330,Kenton Lane-Purley Gardens,55.004220,-1.644750
410000008331,Kenton Park Shops,55.003360,-1.639460
410000008376,Kenton Road-Salters Road,55.001770,-1.638180
410000008377,Kenton Road-Northumberland Avenue,55.000400,-1.635770
410000008378,Kenton Road-Elmfield Road,54.998780,-1.630910
410000008379,Kenton Road-Montagu Avenue,54.996260,-1.629390
410000008929,Claremont Rd-Claremont Pl,54.982430,-1.619240
41000008NC01,Claremont Road Merz Court,54.981060,-1.614970
41000008NC05,Haymarket Barras Bridge,54.978300,-1.613640
41000008NC71,Pilgrim Street,54.973557,-1.611189
41000008NC56,Grainger Street,54.971070,-1.615370
41000008NC95,Central Stn Neville St,54.969370,-1.616110
4100008NC102,Westgate Road-Westgate Hill,54.970970,-1.623780
410000014501,Westgate Road-Tindal Street,54.971930,-1.630740
410000014503,Westgate Road-Elswick Street,54.972280,-1.632680
410000014505,Westgate Road-Gloucester Road,54.973190,-1.637940
410000014507,Westgate Road-Dilston Road,54.973650,-1.641210
410000014509,General Hospital,54.974000,-1.643640
410000014513,West Road-The Plaza,54.975490,-1.652780
410000014517,West Road-Colston Street,54.976330,-1.658000
410000014519,West Road-College,54.976930,-1.661820
410000014521,West Road-Tillmouth Gardens,54.978070,-1.667040
410000014522,West Road-Fox And Hounds,54.979250,-1.672160
410000008047,Newcastle Crematorium,54.980680,-1.677120
410000008046,Denton Hotel,54.981920,-1.681960
410000008045,Denton Burn Shops,54.983730,-1.688970
410000007001,West Road-A1,54.984620,-1.692640
410000007003,West Road-The Ramparts,54.985910,-1.698030
410000007004,West Road-Avalon Drive,54.986700,-1.702160
410000007005,Lemington Road Ends,54.987890,-1.710920
410000007174,Hospital Lane,54.984940,-1.715110
410000007175,Combe Drive-Tewksbury Road,54.983960,-1.719260
410000007176,West Denton Park Valley View,54.983320,-1.720860
410000007142,Chapel House North Layby,54.997662,-1.716245
410000007143,Hillhead Parkway-Elston Close,54.995288,-1.715655
410000007144,Chapel House St. John Vianney,54.994057,-1.711840
410000007189,West Denton Way-Fire Station,54.993880,-1.705560
410000007145,West Denton Shops,54.992330,-1.698590
410000007146,West Denton Way-Social Club,54.992350,-1.695020
410000008451,West Denton Way-Northumbria Walk,54.992930,-1.688940
410000008452,W Denton Way Gofton Walk,54.995240,-1.683620
410000008098,Stamfordham Rd W Denton Way,54.995890,-1.681720
410000008099,Stamfordham Road-Footbridge,54.993620,-1.677700
410000008280,Slatyford Pooley Road,54.990900,-1.677260
410000008092,Stamfordham Road-Western By Pass,54.994390,-1.678990
410000008456,W Denton Way Fenton Walk,54.994100,-1.684660
410000007187,West Denton Way-Northumbria Walk,54.992890,-1.689840
410000007138,West Denton Way-Social Club,54.992290,-1.694920
410000007139,West Denton Shops,54.992250,-1.699450
410000007190,West Denton Way-Fire Station,54.994020,-1.706370
410000007140,Hillhead Parkway-Ainsdale Gardens,54.994620,-1.714760
410000007141,Hillhead Parkway,54.996010,-1.719870
41000042SSIA,Stand A,54.997763,-1.432766
410000042154,Anderson Stt-Library,54.998610,-1.429460
410000042211,Mile End Road,55.001060,-1.434330
410000042010,Mile End Road,55.002040,-1.434950
410000042201, Mile End Road,55.002250,-1.436740
410000042203,River Drive-Number 3,55.003820,-1.438170
410000042202,Mile End Road,55.003680,-1.436520
410000042011,Mile End Rd-Clasper Crt,55.000770,-1.434140
410000042954,Coston Drive,55.000550,-1.431780
410000042155,Anderson Str-Ocean Rd,54.998965,-1.429652
410000042156,Beach Rd-Anderson St,54.996460,-1.425950
410000042157,Salisbury Place-Beach Road,54.997900,-1.421560
410000042158,Sea Way,54.996500,-1.419870
410000042159,Bents Park,54.997080,-1.417920
410000042160,New Crown Hotel,54.994044,-1.412420
410000042161,Mowbray Rd-Kingsway,54.992823,-1.414424
410000042965,Bamburgh Ave-Euryalus Crt,54.991200,-1.411720
410000042967,Bamburgh Ave-Kelvin Grove,54.989940,-1.408450
410000042969,Bamburgh Avenue,54.988530,-1.404880
410000042971,Cheviot Rd-Bamburgh Ave,54.987700,-1.402830
410000042973,Cheviot Rd-Norham Ave Nrth,54.984920,-1.403900
410000042109,Highfield Rd-Cheviot Rd,54.983219,-1.402654
410000042927,Horsley Hill Square,54.981090,-1.398580
410000042110,Marsden Ln-Fulwell Ave,54.979350,-1.392180
410000042111,Marsden Ln-Hampshire Way,54.978960,-1.389130
410000042112,Marsden Inn,54.978570,-1.386100
410000017065,Marsden Inn,54.977710,-1.385410
410000017066,Pr Edward Rd-Valley Ln,54.975470,-1.389690
410000017067,Pr Edward Rd-Forber Ave,54.974280,-1.394490
410000017068,Pr Edward Rd-Carden Ave,54.973497,-1.398049
410000017069,Pr Edward Rd-Larch Ave,54.972900,-1.402120
410000017070,Pr Edward Rd-Centenary Ave,54.972070,-1.406880
410000017071,Harton Nook,54.971720,-1.411800
410000017919,Pr Edward Rd-K George Rd,54.971896,-1.415503
410000017072,Temple Park Road-Meldon Avenue,54.972110,-1.418080
410000017906,Mcanany Ave-Grindleford Ct,54.971240,-1.420190
410000017908,Mcanany Avenue,54.970540,-1.423090
410000017910,Sth Tyneside Hospital,54.971970,-1.425990
410000017109,Sth Tyneside Hospital,54.973170,-1.431180
410000017110,Harton Ln-Blyth Court,54.971980,-1.435410
410000017111,Harton Ln-Loudon St,54.971330,-1.437710
410000017996,Boldon Lane,54.968700,-1.438750
410000017048,Whiteleas Way-John Reid Rd,54.966390,-1.436640
410000017049,Whiteleas,54.964310,-1.434690
410000017179,Nevinson Avenue-Gainsborough Avenue,54.962900,-1.430460
410000017984,Gainsborough Ave-Church,54.961860,-1.428750
410000017168,Gainsborough Ave-Turner Ave,54.959700,-1.427730
410000017169,Gainsborough Ave-Rubens Ave,54.958870,-1.429440
410000017054,Whiteleas Shops,54.959010,-1.431030
410000017055,Whiteleas Way-Holbein Road,54.960350,-1.431540
410000017172,Whiteleas Bridge,54.961820,-1.434580
410000017146,Galsworthy Road-Chuter Ede,54.960750,-1.440200
410000017987,Galsworthy Rd-Browning Close,54.960960,-1.444280
410000017986,Galsworthy Rd-Bunyan Ave,54.961360,-1.447840
410000017985,Sheridan Rd-Galsworthy Rd,54.962600,-1.450610
410000017983,"Mill Inn,Sheridan Road",54.964610,-1.445950
410000017148,John Reid Road Mill Inn,54.965470,-1.446710
410000017218,South Shields Crematorium,54.964300,-1.454850
410000016311,Winskell Road-Richardson Avenue,54.965280,-1.454970
410000017187,Wenlock Rd-Monkton Ave,54.966710,-1.451210
410000017188,Dame Flora Robson Avenue-Fox Avenue,54.968210,-1.453330
410000016183,Dame Flora Robson Ave,54.967740,-1.455330
410000016186,Henderson Road,54.968710,-1.460930
410000016060,Newcastle Road-Henderson Road,54.969760,-1.463120
410000016174,Lynton Avenue,54.969520,-1.468970
410000016175,Taunton Avenue,54.971480,-1.468140
410000016176,Falmouth Drive-Bideford Gardens,54.971320,-1.470850
410000016177,Flamouth Drive - Brixham Crescent,54.972150,-1.472150
410000016178,Low Simonside Falmouth Dr,54.972200,-1.470150
410000016179,Lynton Avenue,54.971220,-1.468250
410000016180,Stanhope Road-Auckland Terrace,54.969200,-1.468670
410000016061,South Leam Haggerston Ter,54.967280,-1.468850
410000016062,Leam Lane-Lawson Avenue,54.964830,-1.475420
410000016063,Robin Hood,54.963250,-1.480170
410000016159,Primrose Tce - Dilston Tce,54.964110,-1.483430
410000016160,Primrose Terrace-Lumley Terrace,54.965740,-1.484180
410000016161,Primrose Village,54.967440,-1.485180
410000016162,Springwell Road-School,54.973150,-1.486190
410000016242,Hill Park Rd-Cemetery Rd,54.972010,-1.482440
410000016243,Hill Park Rd-K Georges Field,54.970380,-1.479550
410000016244,Hill Park,54.970490,-1.481720
410000016245,Hill Park Rd-Cemetery Rd,54.971970,-1.483520
410000016163,Monkton Terrace-Prince Consort Road,54.976210,-1.485800
410000010541,Howard Street-Exchange,54.979030,-1.488220
41000010JARB,Jarrow Bus Station,54.979910,-1.491670
410000010542,Howard St-Exchange,54.978900,-1.487760
410000010926,Jarrow Morrisons,54.980240,-1.486440
410000016149,Monkton Tce-Elberfield Crt,54.977170,-1.485840
410000016150,Springwell Rd-Cemetery Rd,54.974620,-1.485850
410000016151,Primrose Terrace-Hospital,54.967800,-1.485580
410000016152,Primrose Terrace-Lambton Terrace,54.966170,-1.484100
410000016153,Primrose Terrace - Dilston Terrace,54.964410,-1.483780
410000016055,Roman Avenue - Hedworth Lane,54.963760,-1.479740
410000016056,Leam Lane-Lawson Avenue,54.964800,-1.475800
410000016057,South Leam,54.967350,-1.468970
410000016181,Henderson Road,54.968860,-1.461120
410000016182,Dame Flora Robson Ave,54.967290,-1.457180
410000017982,Dame Flora Robson Ave-Fox Ave,54.968210,-1.453340
410000017181,Simonside Club,54.966780,-1.451280
410000017186,Winskell Rd-Wenlock Rd,54.966360,-1.451660
410000016310,Winskell Rd-Richardson Ave,54.965220,-1.455170
410000017219,Crematorium,54.964398,-1.453696
410000017173,Biddick Hall Mill Inn,54.964720,-1.445500
410000017174,Sheridan Road-Kingsley Avenue,54.963200,-1.450110
410000017175,Galsworthy Rd-Sheridan Rd,54.961670,-1.450260
410000017176,Biddick Hall,54.961250,-1.446990
410000017177,Galsworthy Road-Chesterton Road,54.960880,-1.442960
410000017178,Whiteleas Bridge,54.960910,-1.438070
410000017056,Whiteleas,54.963560,-1.433980
410000017057,Whiteleas Way-John Reid Rd,54.966770,-1.436970
410000017995,Boldon Lane,54.968830,-1.438840
410000017112,Harton Lane,54.971030,-1.438830
410000017113,Harton Ln-Blyth Court,54.972100,-1.434950
410000017114,Sth Tyneside Hospital,54.973330,-1.430690
410000017909,Sth Tyneside Hospital,54.972600,-1.426550
410000017907,Mcanany Avenue,54.970410,-1.423640
410000017905,Mcanany Ave-Grindleford Ct,54.972180,-1.419200
410000017212,Prince Edward Road-King George Road,54.971900,-1.415380
410000017077,Harton Nook,54.971738,-1.412143
410000017078,Pr Edward Rd-Centenary Ave,54.972469,-1.404710
410000017079,Pr Edward Rd-Russell Ave,54.973050,-1.400994
410000017080,Pr Edward Rd-Wayside,54.973895,-1.396171
410000017081,Pr Edward Rd-Ingleside,54.974506,-1.393439
410000017082,Pr Edward Rd-Valley Ln,54.975757,-1.388944
410000042089,Marsden Inn,54.978574,-1.386236
410000042090,Marsden Ln-Hampshire Way,54.979020,-1.389601
410000042091,Marsden Ln-Fulwell Ave,54.979497,-1.393293
410000042926,Horsley Hill Square,54.980931,-1.398984
410000042094,Highfield Road-Cheviot Road,54.983745,-1.403840
410000042972,Cheviot Road-Hemsley Road,54.985220,-1.404040
410000042970,Cheviot Road-Bamburgh Avenue,54.986950,-1.403480
410000042968,Bamburgh Avenue,54.988530,-1.404880
410000042966,Bamburgh Avenue-Kelvin Grove,54.990090,-1.408820
410000042964,Tadema Road,54.991560,-1.412700
410000042147,Mowbray Road-Kingsway,54.993148,-1.413864
410000042148,New Crown Hotel,54.994027,-1.412436
410000042149,Bents Park,54.997080,-1.416920
410000042150,Salisbury Place-Marine Approach,54.996560,-1.420420
410000042151,Beach Rd-Salisbury Place,54.998180,-1.421810
410000042152,Beach Rd-Sth Woodbine St,54.996610,-1.425470
410000042153,Beach Rd-Anderson St,54.996380,-1.428160
410000024379,Fordfield Rd-Fordland Place,54.906730,-1.415510
410000024380,Fordfield Rd-Gen Havelock Rd,54.905970,-1.420160
410000024381,Hillside School,54.905450,-1.423050
410000024604,Hillside School,54.904670,-1.427250
410000024382,Fordfield Rd-Front Rd,54.904460,-1.428360
410000024383,Fordfield Rd-Field Square,54.903770,-1.432050
410000024384,Fordfield Rd-Polebrook Rd,54.902960,-1.436390
410000024385,Fordfield Rd-St Lukes Rd,54.902310,-1.440010
410000024386,St Lukes Rd-Quarry View,54.904270,-1.440150
410000024387,Pennywell Quarry View Sch,54.906430,-1.436830
410000024388,St Lukes Rd-Forest Rd,54.907930,-1.431910
410000024389,St Lukes Road-Fordham Rd,54.908720,-1.424500
410000024390,St Lukes Road-Margaret Alice Street,54.909150,-1.419000
410000024391,St Lukes Cross,54.909630,-1.416120
410000024442,St Lukes Cross,54.908690,-1.414420
410000024925,Royal Hospital Pallion Road,54.904150,-1.412940
410000024354,Royal Hospital Hylton Rd,54.904271,-1.411382
410000024355,Hylton Rd-Hume St,54.905609,-1.406564
410000024356,Hylton Rd-John Candlish Rd,54.905870,-1.405195
410000024357,Millfield Metro,54.906892,-1.400936
410000024358,Hylton Rd-Trimdon St,54.907245,-1.394796
410000024S35,St Michaels Way,54.906480,-1.390450
410000024S05,Stockton Rd-Mary St,54.902550,-1.386870
410000024S43,Borough Road,54.904452,-1.380322
410000025413,Tatham SStr,54.904750,-1.376670
410000025414,Tatham SStr,54.902550,-1.374530
410000025415,Suffolk S Street-Deer,54.900240,-1.372650
410000025953,Suffolk St-Gray Rd,54.898780,-1.370880
410000025416,Rosalie T Terrace-Mai,54.897530,-1.368850
410000025439,Villette Road,54.895330,-1.371690
410000025432,Villette Road,54.893960,-1.375320
410000025433,The Cedars-Ashbourne Lodge,54.893430,-1.377760
410000024434,The Cedars-Beechholme Crt,54.892110,-1.379830
410000024435,Ashbrook Range,54.890960,-1.383280
410000024453,QE Alexandra Rd-Ashbrooke Range,54.889820,-1.384960
410000024454,Eye Infirmary,54.888730,-1.381800
410000030037,QE Axandra Road-Sea View Rd,54.887520,-1.377870
410000029058,Hill View Rd-Sea View Rd W,54.885150,-1.379580
410000029059,Hill View Rd-Hill View Sq,54.884560,-1.378980
410000029060,Hillview Hereford Road,54.882210,-1.379830
410000030042,Westheath Ave-Hillview Rd,54.882810,-1.376210
410000030043,Westheath Ave-Playground,54.884330,-1.373520
410000030039,Woodstock Ave,54.885090,-1.371140
410000030975,Grangetown Ryhope Road,54.885550,-1.368680
410000030024,Ryhope Road - Ocean Road,54.885040,-1.366110
410000030027,Grangetown Ocean Road,54.885130,-1.365780
410000030016,Ryhope Rd-Carnegie St,54.885340,-1.366840
410000030034,Grangetown Alexandra Hotel,54.885855,-1.369484
410000030040,Westheath Ave-Playground,54.884458,-1.373085
410000030041,Westheath Ave-Hillview Rd,54.882812,-1.376132
410000029061,Hillview Estate,54.882029,-1.379396
410000029062,Hereford Road,54.883534,-1.379322
410000029063,Hill View Rd-Helvellyn Rd,54.885178,-1.379617
410000029904,QE Alexandra Rd-School,54.887542,-1.378010
410000024455,Eye Infirmary,54.888720,-1.381823
410000024456,QE Alexandra Rd-Greystoke Ave,54.889810,-1.384984
410000024436,Ashbrook Range,54.890874,-1.383380
410000024931,The Cedars-Beechholme Crt,54.891816,-1.380609
410000025437,The Cedars-Ashbourne Lodge,54.893445,-1.377624
410000025438,Villette Road,54.894135,-1.374848
410000025421,Rosalie Terrace,54.895933,-1.370324
410000025422,Rosalie Terr-Mainsforth Terr,54.897223,-1.368883
410000025423,Suffolk St-St Ignatius Cls,54.899095,-1.371513
410000025424,Linsey Road,54.901316,-1.373458
410000025425,Tatham Street,54.902677,-1.374702
410000025426,Tatham Street,54.904746,-1.376684
410000024S07,Mowbray Park,54.904479,-1.379633
410000024S40,Holmeside,54.904314,-1.384265
410000024S39,Green Terrace,54.903728,-1.388211
410000024323,Hylton Rd-Deptford Rd,54.907083,-1.395505
410000024324,Hylton Rd-St Marks CH,54.906619,-1.397789
410000024325,Millfield Metro,54.906897,-1.399888
410000024326,Hylton Rd-Gilsland St,54.905775,-1.405511
410000024327,Royal Hospital Hylton Rd,54.904495,-1.410624
410000024444,Royal Hospital Pallion Rd,54.904382,-1.413097
410000025955,Borough Rd-Villiers St,54.905520,-1.375545
410000025314,West Lawrence Street,54.905100,-1.372580
410000025400,Hendon Rd-Wear St,54.904535,-1.370738
410000025401,D'arcy Court,54.903630,-1.370055
410000025961,White House Road,54.901802,-1.371517
410000025417,Villette Road,54.895511,-1.370310
410000025418,Corporation Rd-St Cecilias Cls,54.894208,-1.368673
410000025959,Commercial Rd-Corporation Rd,54.892760,-1.365690
410000030026,Commercial Rd-Ocean Rd,54.888860,-1.364590
410000030025,Commercial Rd-Ocean Rd,54.886470,-1.363410
410000025407,Commercial Rd-Hastings Terr,54.889770,-1.365080
410000025408,Commercial Rd-Corpor Rd,54.892480,-1.365690
410000025420,Corporation Rd-Fuller Rd,54.894460,-1.368930
410000025960,White House Road,54.901750,-1.369840
410000025412,D'arcy Court,54.903850,-1.370190
410000025313,West Lawrence Street,54.905170,-1.373250
410000025956,Borough Rd-Nile St,54.905360,-1.375970
410000002931,Esh Plaza,55.033660,-1.639550
410000002930,Great Parkway Sage Offices,55.034000,-1.644780
410000002933,Wagonway Drive,55.033650,-1.649260
410000002950,Great Park Shops Wagonway Dr,55.029620,-1.650750
410000002935,Great Park Shops Roseden Way,55.029360,-1.648610
410000002936,Great Pk Community Ctr,55.029910,-1.644210
410000002934,Brunton Lane,55.030910,-1.639220
410000002928,Warkworth Woods,55.029710,-1.630540
410000002021,Great North Road-Glamis Avenue,55.028400,-1.622510
410000002022,Great North Road-Norwood Avenue,55.026670,-1.621820
410000008016,Brunton Park,55.023030,-1.621860
410000008017,Great North Road-Three Mile Inn,55.019220,-1.621980
410000008018,Great North Road-Broadway East,55.017170,-1.621740
410000008019,Great North Road-Park Avenue,55.014430,-1.621260
41000008REGE,Regent Centre E,55.011791,-1.621327
410000008G13,Lansdowne Terrace,55.008560,-1.620100
410000008G05,Gosforth High St Brandling,55.006010,-1.619910
410000008G04,Gosforth High St Shopping Ctr,55.004350,-1.620220
410000008G01,High Street-The Grove,55.001430,-1.619560
410000008025,Great North Road-Moorfield,54.998890,-1.617550
410000008363,Grandstand Road-Blue House,54.995550,-1.617480
410000008297,Kenton Lane-Creighton Avenue,55.003660,-1.653360
410000008298,Kenton Lane-Moor Lane,55.002450,-1.660360
410000008299,Kenton Bar,55.001950,-1.665010
410000008078,Kenton Bar,55.000900,-1.666210
410000008079,Harehills Avenue Ends,54.998550,-1.664390
410000008477,Ponteland Rd Springfield Rd,54.995320,-1.661610
410000008080,Ponteland Road-St Peters Church,54.993630,-1.658830
410000008269,Cowgate Morrisons,54.989440,-1.658390
410000008270,Two Ball Lonnen-Cypress Avenue,54.987740,-1.661010
410000008271,Two Ball Lonnen - Lonnen Avenue,54.984580,-1.664150
410000008272,Two Ball Lonnen Cedar Road,54.982120,-1.666400
410000014524,Two Ball Lonnen-West Road,54.979080,-1.668880
410000014530,Benwell Pease Avenue,54.976590,-1.669870
410000014532,Benwell Village Pease Ave,54.975380,-1.672440
410000000023,St. Cuthberts RC School,54.976266,-1.673530
410000014533,Benwell Village Pease Ave,54.975700,-1.671670
410000014531,Benwell Pease Avenue,54.977110,-1.669760
410000014523,Two Ball Lonnen-West Road,54.978960,-1.668980
410000008266,Two Ball Lonnen Cedar Road,54.982020,-1.666600
410000008981,Two Ball Lonnen-Dahlia Place,54.983910,-1.664810
410000008267,Two Ball Lonnen-Netherby Drive,54.985530,-1.663280
410000008268,Cowgate Morrisons,54.988100,-1.660540
410000008066,Cowgate Aldi,54.992520,-1.657280
410000008067,Ponteland Road-Springfield Road,54.994240,-1.660070
410000008068,Harehills Avenue Ends,54.996860,-1.663330
410000008069,Kenton Bar,55.000820,-1.666390
410000008326,Kenton Bar,55.002060,-1.663960
410000008327,Kenton Lane-Moor Lane,55.002450,-1.658960
410000008328,Kenton Lane-Drayton Road,55.003530,-1.654740
410000008460,Blue House Roundabout,54.996060,-1.615050
410000008461,Jesmond Dene Road-Ilford Road,54.996990,-1.613320
410000009366,Jesmond Dene Road-Sturdee Gardens,54.998790,-1.607530
410000009367,Matthew Bank-Beattie Avenue,55.000240,-1.606190
410000009368,Haddricks Mill Road-Dene Crescent,55.003380,-1.603930
410000009369,South Gosforth Roundabout,55.005950,-1.602850
410000009083,South Gosforth Roundabout,55.006880,-1.604920
410000009084,South Gosforth Metro,55.005990,-1.610000
410000008467,Church Avenue-Rectory Grove,55.007400,-1.614860
410000008G08,Gosforth Church Road,55.007200,-1.618200
410000008G12,Lansdowne Terrace,55.009160,-1.620290
41000008REGA,Regent Centre Interchange,55.012090,-1.621540
410000008012,Great North Road-Park Avenue,55.015210,-1.621620
410000008013,Great North Road-Broadway West,55.017060,-1.621870
410000008014,Great North Road-Bridge Park,55.019810,-1.622120
410000008015,Brunton Park,55.023380,-1.622100
410000002001,Great North Road-Norwood Avenue,55.026160,-1.622160
410000002002,Great North Road-Brunton Lane,55.028520,-1.622880
410000002925,Brunton Ln Warkworth Woods,55.029790,-1.631240
410000002938,Brunton Lane,55.030850,-1.639270
410000002939,Roseden Way,55.029940,-1.641510
410000002940,Great Park Community Centre,55.029930,-1.644940
410000002941,Roseden Way-Wagonway Drive,55.029360,-1.650360
410000002951,Great Park Shops Wagonway Dr,55.030860,-1.651470
410000002942,Wagonway Drive,55.033590,-1.649100
079073001M,Bus Station Stand 13,54.575875,-1.239849
079073278E,Town Hall,54.575940,-1.234700
079073279A,Cleveland Centre,54.574214,-1.235108
079073263A,Newlands Medical Centre,54.571050,-1.225340
079073177A,Breckon Hill Road,54.569010,-1.224520
079073359A,Longlands White Rose,54.565980,-1.223260
079073162B,The Highfield,54.561830,-1.224120
079073161A,Priory Social Club,54.559530,-1.223090
079073348A,Belle Vue Shops,54.557180,-1.222780
079073347A,Regent Road,54.556480,-1.222240
079073129A,Roseberry Park,54.554520,-1.220650
079073345A,James Cook University Hospital,54.552010,-1.218820
079073127B,James Cook Hospital South,54.549220,-1.217250
079073343B,Social Club,54.547170,-1.217990
079073123B,Chippenham Road,54.544390,-1.218750
079073122A,St Agnes' Church,54.542710,-1.217410
079073121A,Pensby Avenue,54.540040,-1.215870
079073299A,Westwick Terrace,54.538470,-1.217170
079073119A,The Derby North End,54.538460,-1.214370
079073120B,Weymouth Avenue,54.538060,-1.217610
079073095B,Municipal Golf Centre,54.535630,-1.225120
079073371A,Copper Beech Lane,54.534570,-1.227310
079073094B,Coulby Manor Footpath,54.533550,-1.230210
079073093B,The Blue Bell - Ladgate Lane,54.532520,-1.238470
079073147A,Sunnyside,54.527870,-1.230120
079073150A,Coulby Manor Way,54.528800,-1.226340
079073154A,Grange Farm,54.528730,-1.221300
079073165A,Saxonfield,54.527790,-1.215860
079073198A,Tesco Extra,54.525830,-1.213650
079073245C,Coulby Newham Parkway Centre,54.524374,-1.213924
079073199B,Gunnergate Lane West End,54.524020,-1.212200
079073200B,Lingfield Way,54.523965,-1.212167
079073272A,Bonny Grove Way,54.519580,-1.209740
079073273A,Dewberry,54.518620,-1.205890
079073308A,Barberry,54.517040,-1.206970
079073281A,Ash Green,54.516670,-1.210640
079073309A,Lingfield Countryside Centre,54.515090,-1.211680
079073256A,Southwood,54.514480,-1.214990
079073249B,The Coulby Farm,54.517140,-1.218660
079073174A,Woodlea,54.519450,-1.219560
079073173A,Willowbank,54.519830,-1.215880
079073200A,Coulby Newham Lingfield Way,54.520220,-1.212490
079073199A,Gunnergate Lane West End,54.523400,-1.212270
079073245A,Coulby Newham Parkway Centre,54.524344,-1.214571
079073198B,Tesco Extra,54.525460,-1.213460
079073165B,Saxonfield,54.528380,-1.217170
079073154B,Grange Farm,54.528760,-1.221940
079073150B,Coulby Manor Way,54.528630,-1.227320
079073147B,Sunnyside,54.527600,-1.230970
079073093A,The Blue Bell - Ladgate Lane,54.532590,-1.238610
079073094A,Coulby Manor Footpath,54.533550,-1.230200
079073095A,Municipal Golf Centre,54.535080,-1.226240
079073120A,Weymouth Avenue,54.538030,-1.217990
079073121B,Pensby Avenue,54.539760,-1.216610
079073122B,St Agnes' Church,54.541780,-1.216450
079073123A,Chippenham Road,54.545090,-1.219130
079073343A,Social Club,54.547670,-1.217020
079073126B,Broadwell Road North End,54.548460,-1.216720
079073127A,James Cook Hospital South,54.550470,-1.218110
079073345B,James Cook University Hospital,54.552400,-1.219100
079073347B,Regent Road,54.554610,-1.220720
079073348B,Belle Vue Shops,54.557780,-1.222900
079073161B,Priory Social Club,54.559810,-1.223210
079073162A,The Highfield,54.562080,-1.224220
079073359B,Longlands White Rose,54.566220,-1.223390
079073177B,Breckon Hill Road,54.569010,-1.224520
079073263B,Newlands Medical Centre,54.571050,-1.225340
410000000117,Gosforth East Middle Sch,55.015120,-1.616920
410000002065,Polworth Drive Terminus,55.026400,-1.626990
410000002003,Newcastle Racecourse,55.035050,-1.623610
410000002004,Great North Road-Cemetery,55.040670,-1.622010
410000002023,Coach Lane-Rydal Terrace,55.041440,-1.624920
410000002929,Coach Lane-Birchwood Avenue,55.041510,-1.628840
410000002070,Coach Lane,55.041530,-1.630810
410000002024,Coach Lane-Ferguson Crescent,55.041610,-1.635630
410000002025,Coach Lane Ryall Avenue,55.041600,-1.639170
410000002026,Coach Lane - Lola Street,55.041600,-1.642290
410000002027,Coach Lane-Morley Hill Farm,55.041430,-1.650820
410000002028,Coach Lane-Woodlands,55.041510,-1.655790
410000002029,Coach Lane-Havannah Works,55.041340,-1.662570
410000002044,Brunton Lane-Havannah Crescent,55.050040,-1.671900
410000002045,Main Road-Horton Crescent,55.052540,-1.674200
410000002050,Dinnington Masons Arms,55.054090,-1.676230
410000002051,Main Road-Horton Crescent,55.052180,-1.673860
410000002052,Brunton Lane-Havannah Crescent,55.051090,-1.672630
410000002053,Sandy Lane-Mill Hill Farm,55.048500,-1.660650
410000002054,Sandy Lane-West End,55.048200,-1.646910
410000002901,Sandy Lane-Industrial Estate,55.048280,-1.642760
410000002055,Sandy Lane - Grey Street,55.047880,-1.638180
410000002056,Darrell Street,55.047750,-1.633940
410000002057,Stalks Road,55.048140,-1.628130
41000042SSIK,Stand K,54.997327,-1.432664
410000042S05,Coronation Street,54.996270,-1.437040
410000042085,Lawe Top,55.005630,-1.429630
410000042209,Lawe Road-Trajan Avenue,55.003990,-1.427870
410000042210,Lawe Road-George Scott Street,55.000930,-1.424230
410000042062,Sea Rd-Pier Parade,55.000810,-1.422650
410000042064,Bents Park,55.000107,-1.416246
410000042925,Shields SRoad-Information Sd,54.997712,-1.412484
410000042065,Sea Rd-Gypsies Green,54.995106,-1.410578
410000042066,Coast Rd-New Crown,54.993800,-1.411110
410000042067,Coast Rd-Waters Edge,54.990370,-1.407500
410000042068,Coast Rd-Cheviot Rd,54.987930,-1.401910
410000042172,Coast Rd-Frenchmans Bay,54.985530,-1.395740
410000042069,Coast Rd-Norfolk Rd,54.982540,-1.388330
410000042985,Redwell Lane-Grotto Gdns,54.979020,-1.383190
410000017903,Lake Avenue(SE),54.975860,-1.385230
410000017901,Lake Ave NE-bound,54.975600,-1.383870
410000017918,Lizard Ln-Lake Ave,54.976650,-1.382330
410000017064,Lizard Ln-Pr Edward Rd,54.977771,-1.383699
410000042978,Lincoln Rd Hampshire Way,54.980020,-1.389720
410000042976,Lincoln Rd Hampshire Way,54.980410,-1.393050
410000042974,Lincoln Rd-Horsley Hill Sq,54.981000,-1.397120
410000042092,Horsley Hill Square,54.980440,-1.398377
410000017133,Centenary Ave-Witton Ave,54.977490,-1.401480
410000017134,Centenary Ave-East Ave,54.975470,-1.403320
410000017195,Quarry Ln-The Lonnen,54.970760,-1.398010
410000017196,Watson Avenue,54.971190,-1.392670
410000017900,The Lonnen-Quarry Ln,54.970310,-1.398020
410000017197,The Lonnen-Eastway,54.969580,-1.397730
410000017198,The Lonnen-Hillcrest,54.968410,-1.397450
410000017199,The Lonnen,54.966810,-1.399130
410000017201,The Lonnen-Eastway,54.969790,-1.397830
410000017202,Quarry Ln-Larch Ave,54.970620,-1.399300
410000017203,Quarry Ln-Pine Ave,54.969700,-1.404660
410000017204,Quarry Ln-Sunderland Rd,54.969110,-1.408090
410000017058,Quicksilver Way,54.971230,-1.439670
410000017059,Boldon Ln-Stanhope Rd,54.974760,-1.440600
410000017061,Boldon Ln-Hudson St,54.976620,-1.444270
410000042001,Tyne Dock,54.978640,-1.445330
410000042044,Sth Eldon St-Devonshire St,54.981320,-1.443080
410000042959,Sth Eldon Sr-Barnes Rd,54.982980,-1.441470
410000042045,Sth Eldon St-Fraser Close,54.984270,-1.440690
410000042046,Sth Eldon St-Drake Close,54.985800,-1.439970
410000042205,"Laygate, Eldon St",54.988820,-1.440250
410000042952,Commercial Road,54.990210,-1.440850
410000042170,Laygate,54.989460,-1.436810
410000042049,Laygate,54.989501,-1.435678
410000042050,Western Approach-Tudor Rd,54.991710,-1.435250
410000042213,Crossgate,54.993800,-1.432580
410000042S16,Fowler Str-Town Hall,54.995590,-1.430090
410000042S04,Station Rd-Industrial Est,54.994810,-1.437430
410000042951,Western Approach-Victoria Rd,54.991842,-1.435058
410000042054,Laygate,54.989213,-1.435595
410000042955,Laygate,54.989560,-1.437310
410000042963,Wrekendyke Lane,54.989400,-1.441860
410000042206,"Laygate, Eldon St",54.988640,-1.440220
410000042958,Sth Eldon St-Cain House,54.985070,-1.440310
410000042058,Sth Eldon St-Barnes Rd,54.983040,-1.441420
410000042059,South Eldon Str-Dean Rd,54.981120,-1.443280
410000042022,Tyne Dock,54.978830,-1.444640
410000017044,Hudson Street,54.977690,-1.445130
410000017046,Boldon Ln-Stanhope Rd,54.974690,-1.440510
410000017193,Quarry Ln-Sunderland Rd,54.969070,-1.408320
410000017194,Quarry Ln-Pine Ave,54.969690,-1.404730
410000017200,The Lonnen-Hillcrest,54.968540,-1.397370
410000017135,Centenary Ave-Pr Edward Rd,54.972700,-1.405840
410000017136,Centenary Ave-East Ave,54.975800,-1.403020
410000017137,Centenary Ave-Barbour Ave,54.978020,-1.401000
410000042975,Lincoln Rd-Cheshire Grv,54.980730,-1.395590
410000042977,Lincoln Rd-Dorset Ave,54.980290,-1.391990
410000042979,Lincoln Rd Hampshire Way,54.980040,-1.389890
410000042984,Redwell Lane-Redwell Court,54.978890,-1.383430
410000042071,Coast Rd-Redwell Ln,54.979900,-1.383490
410000042072,Coast Rd-Norfolk Rd,54.981790,-1.387050
410000042171,Coast Rd-Frenchmans Bay,54.985900,-1.396690
410000042073,Coast Rd-Cheviot Rd,54.988270,-1.402810
410000042074,Coast Rd-Kingsway,54.991030,-1.408440
410000042075,Coast Rd-New Crown,54.993870,-1.411170
410000042076,Sea Rd-Mowbray Rd,54.996559,-1.410664
410000042077,Bents Park,55.000071,-1.416200
410000042078,Pier Head,55.000762,-1.422769
410000042207,Lawe Road-George Scott Street,55.001440,-1.424660
410000042208,Lawe Road-Vespasian Avenue,55.003660,-1.427450
41000042SSIG,Stand G,54.997465,-1.432709
410000042S07,Coronation St-Garden Ln,54.996674,-1.435064
410000042S18,Westoe Rd-Town Hall,54.993923,-1.429325
410000042016,Westoe Rd-Hyde St,54.992390,-1.428360
410000042102,Westoe Rd-Madeira Terr,54.990220,-1.426500
410000042103,Westoe Rd-Mowbray Rd,54.989150,-1.425110
410000042104,Westoe,54.987700,-1.422470
410000042105,Horsley Hill Rd-Readhead Ave,54.988420,-1.420120
410000042106,Horsley Hill Rd-Westcott Ave,54.989030,-1.418310
410000042928,Highfield Rd-Westoe Drive,54.989232,-1.414702
410000042107,Highfield Rd-Grosvenor Rd,54.987145,-1.411963
410000042108,Highfield Rd-Fountain Grove,54.985121,-1.408532
410000017088,Temple Park Leisure Centre,54.971360,-1.416350
410000017089,King George Road- Orchid Gardens,54.969240,-1.415700
410000017090,King George Road-Park Avenue,54.967670,-1.415220
410000017091,King George Road-Elm Avenue,54.966220,-1.414770
410000017092,Ridgeway,54.964150,-1.414130
410000017165,South Shields Community School,54.962800,-1.416750
410000017166,Nevinson Avenue-Tarragon Way,54.964160,-1.422890
410000017167,Nevinson Avenue - Gainsborough Avenue,54.963370,-1.428540
410000017147,Chesterton Road,54.963270,-1.443560
410000017103,Stanhope Rd-Boldon Ln,54.974770,-1.439890
410000017105,Stanhope Rd-Gresford St,54.976830,-1.436100
410000017106,Stanhope Rd-Ashley Rd,54.978180,-1.433620
410000042038,Stanhope Rd-Lismore Ave,54.980400,-1.431270
410000042039,Stanhope Rd-West Park Rd,54.981990,-1.430740
410000042040,Stanhope Rd-Bewick St,54.983880,-1.430350
410000042C03,Stanhope Parade,54.985960,-1.430740
410000042118,Laygate-Eglesfield Rd,54.987739,-1.433802
41000042SSIH,Stand H,54.997417,-1.432694
410000042119,Laygate-School,54.987446,-1.433312
410000042C09,Chichester METRO,54.986314,-1.432352
410000042C02,Chichester,54.985820,-1.430500
410000042041,Stanhope Rd-Alverthorpe St,54.982980,-1.430520
410000042042,Stanhope Rd-Wantage St,54.981770,-1.430790
410000042043,Stanhope Rd-Lismore Ave,54.979930,-1.431540
410000017100,Stanhope Road - Ashley Road,54.978080,-1.433810
410000017101,Stanhope Rd-Talbot Road,54.976980,-1.435830
410000017975,Stanhope Rd-Boldon Ln,54.975010,-1.439440
410000017047,Boldon Lane - Harton Lane,54.971630,-1.439690
410000017138,John Reid Road,54.966780,-1.439660
410000017988,Nevinson Avenue - Moreland Road,54.963465,-1.428094
410000017180,Nevinson Avenue-Tarragon Way,54.964110,-1.422160
410000017213,Community School,54.962694,-1.415086
410000017093,Ridgeway,54.964520,-1.414500
410000017094,King George Road-Elm Avenue,54.966261,-1.415044
410000017095,King George Road-Park Avenue,54.967780,-1.415500
410000017096,King George Road-Cleadon Park,54.969942,-1.416188
410000042095,Highfield Rd-North View,54.985545,-1.410191
410000042096,Highfield Rd-Northfield Rd,54.988240,-1.412751
410000042097,Highfield Rd-Westoe Drive,54.989122,-1.416680
410000042098,Horsley Hill Rd-Readhead Ave,54.988240,-1.420580
410000042100,Westoe,54.987260,-1.424710
410000042101,Imeary St-Chichester Rd,54.989970,-1.427510
410000042S17,Westoe Rd-Erskine Rd,54.993310,-1.428910
410000042S06,Coronation St-Cornwallis St,54.996440,-1.436250
410000042099,Westoe,54.987180,-1.423440
410000042129,Sunderland Rd-Grosvenor Rd,54.984394,-1.421354
410000042137,Sunderland Rd-Harton House Rd,54.980715,-1.416749
410000042143,Sunderland Rd-Marsden Rd,54.978250,-1.413910
410000017001,Sunderland Rd-North Ave,54.975680,-1.412220
410000017022,Harton Nook,54.972190,-1.410630
410000017023,Sunderland Rd-North Ave,54.975560,-1.412130
410000042142,Sunderland Rd-Marsden Rd,54.978694,-1.414320
410000042136,Sunderland Rd-Holmfield Ave,54.981125,-1.417265
410000042126,Sunderland Rd-Morpeth Ave,54.983119,-1.420509
410000042127,Sunderland Rd-Grosvenor Mews,54.984697,-1.421937
410000008446,Two Ball Lonnen Cedar Rd,54.981650,-1.665890
410000008447,Cedar Road-Olive Place,54.981540,-1.661720
410000008448,Linden Avenue,54.980470,-1.660070
410000008449,Hadrian Road-Baxter Avenue,54.979070,-1.656070
410000014544,Hadrian Road-Hall Avenue,54.978290,-1.651180
410000014543,Wingrove Road-Hadrian Road,54.978020,-1.647540
410000008239,Wingrove Road-Nuns Moor Road,54.980600,-1.647550
410000008438,General Hosp Nuns Moor,54.979810,-1.641540
410000014708,Walter Terrace-Sports Ground,54.978540,-1.634800
410000014706,New Mills-Monday Cresent,54.977960,-1.631350
410000014704,Barrack Road-New Mills,54.977180,-1.628380
410000014702,Barrack Road-Leazes Park,54.975640,-1.625940
410000014700,Barrack Road-St James Park,54.974730,-1.622890
41000008NC13,Newcastle St James,54.973620,-1.619870
41000008NC27,Blackett Street,54.974142,-1.615503
41000008NC31,New Bridge Street West,54.974510,-1.610650
410000015500,Newcastle Manors,54.974380,-1.602490
410000015504,New Bridge Street-Blackfriars,54.974650,-1.597330
410000015B01,Byker Morrisons,54.976550,-1.584950
410000015B15,Byker Metro,54.976280,-1.580050
410000015B18,Conyers Road,54.975480,-1.581910
410000015580,Dalton Street-Gordon Road,54.974020,-1.583140
410000015582,Dalton Street-Brock Square,54.972830,-1.582790
410000015584,St Michaels Road,54.972200,-1.579010
410000015586,Commercial Road-Mcgowen Court,54.971940,-1.576800
410000015588,Commercial Road-St Peters Road,54.971580,-1.572780
410000015590,Commercial Rd Allendale Rd,54.971500,-1.570070
410000015592,Dunstanburgh Road-Newbold Street,54.971930,-1.563760
410000015594,Monkchester Road,54.969790,-1.562500
410000015596,Birds Nest Road,54.969070,-1.558810
410000015598,St Anthonys,54.967410,-1.557040
410000015600,St Anthonys Road,54.965300,-1.556340
410000015538,Walker Road-Eastcote Terrace,54.965360,-1.550610
410000015540,Walker Road-Beal Terrace,54.966550,-1.548090
410000015542,Walker Road-Church Street,54.968540,-1.543110
410000015544,Walker Bus Terminal,54.971120,-1.541210
410000015546,Bath Street,54.974500,-1.540910
410000015630,Waverdale Avenue - Edendale Avenue,54.977970,-1.540900
410000009480,Waverdale Avenue-Ennerdale Road,54.981050,-1.542160
410000009483,Waverdale Avenue-Rutland Avenue,54.983140,-1.542140
410000009319,Stotts Rd Eastfield Ave,54.985540,-1.544330
410000009320,Stotts Road-Shields Road,54.987510,-1.547410
410000009012,Shields Road-Oaktree Avenue,54.989060,-1.546120
410000009013,High Street West-The Avenue,54.990010,-1.540300
410000010W04,Wallsend High Street West,54.990670,-1.535800
41000010WALC,Wallsend Interchange C,54.989390,-1.533080
410000010W05,Wallsend High Street West,54.990560,-1.536470
410000009016,High Street West-Lilac Road,54.989810,-1.541650
410000009017,Shields Road-Firtree Avenue,54.989160,-1.545570
410000009329,Stotts Road-Marmion Road,54.987050,-1.546700
410000009330,Stotts Rd Eastfield Ave,54.984680,-1.542930
410000009482,Waverdale Avenue-Rutland Avenue,54.983220,-1.542140
410000009481,Waverdale Avenue-Ennerdale Road,54.980700,-1.542150
410000015547,Welbeck Road Bath Street,54.976710,-1.540340
410000015545,Bath Street,54.974830,-1.540810
410000015543,Walker Bus Terminal,54.970400,-1.541620
410000015541,Walker Road-Rochester Street,54.968080,-1.544470
410000015539,Walker Road-Oliver Court,54.965800,-1.549690
410000015537,Walker Road-Pottery Bank,54.964840,-1.552660
410000015599,St Anthonys Road,54.965460,-1.556390
410000015597,St Anthonys,54.967740,-1.557150
410000015595,Birds Nest Road,54.969050,-1.559290
410000015908,Monkchester Road,54.969380,-1.562430
410000015593,Monkchester Road-Norbury Grove,54.970920,-1.562710
410000015591,Dunstanburgh Road-Newbold Street,54.971850,-1.564660
410000015589,Commercial Rd Allendale Rd,54.971460,-1.568850
410000015587,Commercial Road-St Peters Road,54.971670,-1.573860
410000015585,St Michaels Road,54.972170,-1.578770
410000015583,Dalton Street-Brock Square,54.972930,-1.582810
410000015581,Dalton Street-Dalton Crescent,54.974550,-1.583310
410000015B17,Conyers Road,54.975470,-1.581990
410000015B23,Byker Metro,54.976420,-1.578880
410000015B14,Brinkburn Street,54.976660,-1.581700
410000015B10,Shields Road-Clifford Street,54.976340,-1.586290
410000015505,New Bridge Street-Blackfriars,54.974630,-1.597420
410000015501,Newcastle Manors,54.974350,-1.602960
41000008NC69,Laing Art Gallery,54.974841,-1.609951
41000008NC23,Blackett Street,54.974150,-1.616090
41000008NC16,Newcastle St James,54.973980,-1.618690
410000014701,Barrack Road-St James Park,54.974750,-1.623070
410000014703,Barrack Road-Leazes Park,54.976010,-1.627090
410000014707,New Mills-Monday Crescent,54.978130,-1.632350
410000014709,Walter Terrace-Powys Place,54.978620,-1.635300
410000008436,Studley Terrace-Dilston Road,54.979410,-1.639490
410000008437,General Hosp Nuns Moor,54.980270,-1.643660
410000008225,Wingrove Road-Nuns Moor Road,54.980530,-1.647530
410000014542,Wingrove Road-Hadrian Road,54.977950,-1.647540
410000014545,Hadrian Road-Oliver Avenue,54.978210,-1.650670
410000014546,Hadrian Road-Baxter Avenue,54.979130,-1.656480
410000008443,Linden Avenue,54.980350,-1.660030
410000008444,Cedar Road-Grange Road,54.981580,-1.663000
079073001N,Bus Station Stand 14,54.575808,-1.240168
079073005B,The Swatters Carr,54.570190,-1.238810
079073006B,Gresham Road,54.566960,-1.240180
079073007B,Dorman Museum,54.564650,-1.241500
079073328B,St Barnabas Church,54.562700,-1.242160
079073158B,Linthorpe Village,54.560670,-1.242790
079073159B,Lancaster Road,54.558250,-1.241560
079073145B,Conservative Club,54.555460,-1.241470
079073333B,Cherryfield Drive,54.555160,-1.247430
079073038A,Northgate Road,54.554740,-1.250420
079073037B,Baptist Church,54.554360,-1.253220
079073036B,Levick Court,54.554130,-1.258080
079073332B,Acklam Green Centre,54.553370,-1.262790
079073045A,Pannell Avenue,54.551190,-1.262020
079073044A,Rockingham Court,54.549740,-1.260520
079073056B,"Acklam, Coronation",54.547840,-1.259550
079073057A,Lodore Grove,54.544230,-1.257790
079073336B,Hall Drive West End,54.542320,-1.256080
079073065B,Staindrop Drive North,54.541300,-1.254850
079073066B,Staindrop Drive South,54.539590,-1.252140
079073067B,Teesside Crematorium,54.535620,-1.245150
079073092A,The Blue Bell - Acklam Road,54.533340,-1.242020
079073083A,Viewley Hill Avenue,54.526440,-1.233980
079073340B,Southdean Close,54.526770,-1.238760
079073050A,Hemlington Shops,54.525539,-1.239452
079073081B,Viewley Hill Academy,54.524020,-1.238390
079073080B,Elmstone Gardens,54.522560,-1.238980
079073079B,Dodford Road,54.520871,-1.241013
079073063B,Recreation Centre,54.520260,-1.244600
079073078A,Mardale,54.519780,-1.247170
079073088A,Ellis Gardens,54.519100,-1.238940
079073086A,Aviemore Road,54.520880,-1.232830
079073085A,Brabourn Gardens,54.521920,-1.228810
079073048A,Aldi,54.522770,-1.217440
079073245B,Coulby Newham Parkway Centre,54.524439,-1.213711
079073048B,Tescos Garage,54.522790,-1.216450
079073085B,Brabourn Gardens,54.521740,-1.229400
079073086B,Aviemore Road,54.520680,-1.233740
079073088B,Ellis Gardens,54.519280,-1.238520
079073078B,Mardale,54.519710,-1.247370
079073063A,Recreation Centre,54.520380,-1.243780
079073079A,Dodford Road,54.521090,-1.240390
079073080A,Elmstone Gardens,54.523030,-1.238770
079073081A,Viewley Hill Academy,54.524430,-1.238230
079073050B,Hemlington Shops,54.525237,-1.239221
079073083B,Viewley Hill Avenue,54.526270,-1.234570
079073092B,The Blue Bell - Acklam Road,54.533130,-1.242040
079073067A,Teesside Crematorium,54.536400,-1.246680
079073066A,Staindrop Drive South,54.538950,-1.251040
079073065A,Staindrop Drive North,54.540670,-1.254010
079073336C,Hall Drive West End,54.543170,-1.256870
079073057B,Lodore Grove,54.545050,-1.258300
079073056C,"Acklam, Coronation",54.547120,-1.259180
079073044B,Rockingham Court,54.549190,-1.260230
079073332A,Acklam Green Centre,54.552680,-1.263000
079073035A,Cambridge Hotel,54.554000,-1.261910
079073036A,Levick Court,54.554100,-1.258820
079073037A,Baptist Church,54.554230,-1.254390
079073038B,Northgate Road,54.554860,-1.249610
079073333A,Cherryfield Drive,54.555270,-1.244510
079073145A,Conservative Club,54.555420,-1.241930
079073159A,Lancaster Road,54.557770,-1.240380
079073158A,Linthorpe Village,54.561130,-1.242650
079073328A,St Barnabas Church,54.563270,-1.241980
079073005C,The Swatters Carr,54.569750,-1.238980
079073082A,All Nations Church,54.525650,-1.237750
079073096B,Phoenix Park,54.528640,-1.245560
079073097B,Northleach Drive,54.527500,-1.248330
079073098B,Mowbray Drive,54.526140,-1.251510
079073261B,St Austell Close,54.525050,-1.256080
079073099B,Stainton Way West Footbridge,54.522380,-1.254510
079073077A,Fawcett Avenue,54.519670,-1.253950
079073338B,Stainton Village,54.519620,-1.258590
079073337B,The Stainton,54.520360,-1.259570
079073072B,Greenacres,54.521720,-1.260970
079073071B,Sporting Lodge,54.523800,-1.264430
079073253A,Jack Simon Way,54.528870,-1.258860
079073070A,Lincombe Drive,54.529290,-1.252000
079073069A,The Oval,54.531690,-1.251830
079073068B,Shoreswood Walk,54.534440,-1.250070
079073336D,Hall Drive West End,54.542760,-1.255260
079073151B,Outwood Academy,54.544200,-1.245550
079073152B,Swainby Close,54.545540,-1.241450
079073153A,Tollesby Glaisdale Avenue,54.548830,-1.241650
079073137B,Hawnby Road,54.552600,-1.242650
079073039B,Masonic Hall,54.554770,-1.245850
079073006C,Gresham Road,54.566000,-1.240760
079073327A,Amber Street,54.573013,-1.237745
079073001K,Bus Station 11,54.576133,-1.239526
079073001T,Middlesbrough Bus Stn,54.575670,-1.240010
079073016A,Cannon Park Way,54.574870,-1.245100
079073017A,Marsh Street,54.573150,-1.249670
079073018B,Lamport Street,54.571780,-1.253550
077072633B,Newport Bridge,54.573300,-1.267210
077072492B,CF Portrack Site,54.577360,-1.272760
077072483B,North Tees Industrial Estate,54.575650,-1.278340
077072482A,Portrack Lane Asda,54.573160,-1.285460
077072481B,Retail Park,54.571760,-1.290740
077072480A,Walton Street,54.570990,-1.295020
077072479A,Portrack Lane Depot Roundabout,54.570140,-1.299340
077072478A,Stagecoach Depot gate,54.570216,-1.303101
077072406B,The Buffs Social Club,54.570110,-1.312180
077072405C,Laing Street,54.568140,-1.312800
077072001E,"Stockton Royal Oak, E",54.565555,-1.312888
077072002K,High St (K),54.563983,-1.312665
077072356B,Trinity Gardens,54.560940,-1.317790
077072804A,Varo Terrace,54.560880,-1.322610
077072634B,Industrial Estate,54.563180,-1.325730
077072787A,Ambulance Station,54.564690,-1.327580
077072378B,Grangefield Shop,54.566530,-1.333410
077072377A,Cricket Club,54.566750,-1.337600
077072376B,Loweswater Crescent,54.569390,-1.338340
077072375B,Ston 6th Form Coll Bshptn Rd,54.571410,-1.342700
077072646B,Castle Close,54.570710,-1.348670
077072374A,The Avenue,54.569660,-1.351840
077072458A,Bishopton Court,54.569470,-1.354290
077072798B,The Rimswell,54.569309,-1.357988
077072373A,Rimswell Road South End,54.569670,-1.359440
077072477B,Torwell Drive,54.572780,-1.358980
077072476B,Fordwell Road,54.574160,-1.360580
077072807B,Felton Lane,54.575400,-1.359530
077072650A,Norwich Avenue,54.576720,-1.351830
077072649A,The Vale,54.577300,-1.342750
077072487B,Humbledon Road,54.579690,-1.341460
077072488A,Salters Lane,54.580000,-1.344860
077072487A,Humbledon Road,54.579700,-1.341230
077072649B,The Vale,54.577030,-1.343810
077072650B,Norwich Avenue,54.576720,-1.351830
077072807A,Felton Lane,54.575180,-1.360690
077072476A,Fordwell Road,54.574710,-1.361000
077072477A,Torwell Drive,54.572430,-1.359020
077072373B,Rimswell Road South End,54.570390,-1.359850
077072798A,The Rimswell,54.569340,-1.358570
077072458B,Bishopton Court,54.569420,-1.355100
077072374B,The Avenue,54.569550,-1.353130
077072646A,Castle Close,54.570980,-1.347980
077072375A,Ston 6th Form Coll Bshptn Rd,54.571430,-1.342010
077072376A,Loweswater Crescent,54.568760,-1.338410
077072378A,Grangefield Shop,54.566530,-1.333410
077072787B,Ambulance Station,54.565630,-1.328560
077072634A,Industrial Estate,54.561940,-1.325960
077072804C,Varo Terrace,54.560820,-1.321030
077072356A,Trinity Gardens,54.561030,-1.317260
077072002O,"Stockton High St, DWP",54.560550,-1.312590
077072002R,High St {R},54.560760,-1.312600
077072001T,"High St, T (trshop)",54.565630,-1.313030
077072405B,Laing Street,54.568550,-1.312720
077072406A,The Buffs Social Club,54.569690,-1.312250
077072478B,Stagecoach Depot gate,54.570280,-1.302870
077072479B,Portrack Lane Depot Roundabout,54.570530,-1.298530
077072480B,Walton Street,54.571210,-1.294290
077072481A,Retail Park,54.571960,-1.290110
077072482B,Portrack Lane Asda,54.573350,-1.285230
077072483A,North Tees Industrial Estate,54.576320,-1.277540
077072492A,CF Portrack Site,54.576670,-1.271650
077072633A,Newport Bridge,54.572460,-1.264470
079073018A,Lamport Street,54.572350,-1.252030
079073017B,Marsh Street,54.573700,-1.248180
079073016C,Cannon Park Way,54.574560,-1.246200
079073039A,Masonic Hall,54.555000,-1.245990
079073137C,Hawnby Road,54.552200,-1.242410
079073153B,Tollesby Glaisdale Avenue,54.549070,-1.241660
079073152A,Swainby Close,54.545540,-1.241450
079073151A,Outwood Academy,54.544050,-1.246590
079073067C,Teesside Crematorium,54.535850,-1.246550
079073068A,Shoreswood Walk,54.534390,-1.250190
079073069B,The Oval,54.532180,-1.252920
079073070B,Lincombe Drive,54.528940,-1.253000
079073253B,Jack Simon Way,54.528460,-1.258770
079073071A,Sporting Lodge,54.523800,-1.264430
079073072A,Greenacres,54.521730,-1.260990
079073337A,The Stainton,54.520320,-1.259580
079073338A,Stainton Village,54.519500,-1.257330
079073077B,Fawcett Avenue,54.519720,-1.254770
079073099A,Stainton Way West Footbridge,54.522580,-1.254840
079073261A,St Austell Close,54.525210,-1.255790
079073098A,Mowbray Drive,54.526090,-1.252190
079073097A,Northleach Drive,54.527870,-1.247890
079073096A,Phoenix Park,54.528650,-1.244670
079073340A,Southdean Close,54.527210,-1.240210
079073014B,Parkville Care Centre,54.572240,-1.243460
079073013A,Glebe Road,54.570910,-1.247000
079073012B,Parliament Road,54.569660,-1.250330
079073011A,Leinster Road,54.566800,-1.252410
079073329B,Liverton Avenue,54.565160,-1.254670
079073023B,Barnaby Avenue,54.563520,-1.257330
079073024B,West Lane Hospital,54.561980,-1.258970
079073025B,Springfield Road,54.560120,-1.259670
079073034A,Oxford Road West End,54.555180,-1.261950
079073336A,Hall Drive West End,54.543040,-1.257350
079073058A,Cassop Grove,54.541270,-1.260970
079073059B,Hesleden Avenue North End,54.539790,-1.262390
079073060B,Trimdon Avenue Shops,54.538040,-1.262580
079073061B,Hesleden Avenue South End,54.535900,-1.261920
079073062A,St Clare's RC Primary School,54.532850,-1.260430
079073246A,Trimdon Avenue Baldoon Sands,54.531830,-1.260310
079073247A,Gore Sands,54.532510,-1.266770
079073248A,Brackenthwaite,54.533590,-1.264230
079073062B,St Clare's RC Primary School,54.533980,-1.261280
079073061A,Hesleden Avenue South End,54.535340,-1.261750
079073060A,Trimdon Avenue Shops,54.537420,-1.262390
079073059A,Hesleden Avenue North End,54.539950,-1.262250
079073058B,Cassop Grove,54.541750,-1.260480
079073034B,Oxford Road West End,54.555230,-1.261930
079073025A,Springfield Road,54.558680,-1.260290
079073024A,West Lane Hospital,54.561320,-1.258920
079073023A,Barnaby Avenue,54.564010,-1.256570
079073011B,Leinster Road,54.567120,-1.252180
079073012A,Parliament Road,54.569850,-1.249810
079073013B,Glebe Road,54.570910,-1.247000
079073014A,Parkville Care Centre,54.572500,-1.242760
410000014535,Ferguson's Lane-Church,54.974700,-1.674640
410000014537,Ferguson's Lane-Gibside Gardens,54.974920,-1.678390
410000014538,Ferguson's Lane-Burnopfield Gardens,54.975170,-1.682030
410000014581,Whickham View-Muscott Grove,54.977340,-1.685830
410000008164,Whickham View-Greenside Crescent,54.979550,-1.688320
410000007134,Whickham View Terminus,54.981120,-1.690980
410000007006,Hexham Road-Lemington Road Ends,54.988650,-1.715670
410000007007,Hexham Road-St Cuthberts Church,54.991440,-1.725560
410000007008,Hawthorn Terr Walbottle Rd,54.992900,-1.732820
410000007009,Hexham Road-Hawthorn Terrace,54.993710,-1.736860
410000008087,Cowgate Morrisons,54.989470,-1.660460
410000008088,Stamfordham Road-Yewvale Road,54.989440,-1.665930
410000008089,Stamfordham Road-Silver Lonnen,54.989910,-1.670380
410000008090,Slatyford Depot,54.990060,-1.672900
410000008091,Stamfordham Road - Pooley Road,54.991350,-1.675280
410000007098,Hillhead Road-Grosvenor Way,54.996780,-1.707810
410000007099,Hillhead Road-Gleneagles Close,54.999720,-1.705460
410000007101,Greenway-Glenhurst Drive,55.001560,-1.708010
410000007102,Chapel Park PH,55.002880,-1.713030
410000007103,Greenway-Jonquil Close,55.003680,-1.715990
410000007104,North Walbottle Road-Greenway,55.004080,-1.716870
410000007105,North Walbottle Rd-Whorlton Tce,55.004000,-1.722180
410000007106,North Walbottle Rd-Claverdon St,55.004250,-1.724420
410000007107,North Walbottle Road-Abbey Drive,55.001960,-1.727940
410000007108,North Walbottle Rd-Coronation Rd,55.000190,-1.728280
410000007109,North Walbottle,54.998450,-1.728740
410000007110,North Walbottle Road-Hexham Road,54.993200,-1.731170
410000009065,Front St Black Bull,55.010000,-1.574850
410000009916,Coach Lane-Portrush Way,55.007990,-1.572780
410000009500,Coach Lane-Rosemont Way,55.006690,-1.572410
410000009344,Etherstone Avenue-Sports Ground,54.997140,-1.574220
410000009345,Etherstone Avenue-Cemetery,54.996170,-1.577610
410000009133,Benton Road-Craster Terrace,54.995890,-1.580310
410000009134,Benton Road Cragside,54.997450,-1.580760
410000009411,Dovedale Gardens - Teviotdale Gardens,54.999850,-1.581010
410000009412,Dovedale Gardens,55.000190,-1.585500
410000009413,Cragside School,54.999160,-1.588650
410000009241,Newton Road Co-Op,54.995120,-1.586770
410000009242,Newton Road-Weldon Crescent,54.993880,-1.585790
410000009243,Corner House,54.990830,-1.583420
410000009244,Heaton Road-Cartington Terrace,54.988790,-1.581900
410000009213,St. Teresas Church,54.984230,-1.581910
410000009214,Heaton Road-Rothbury Terrace,54.985750,-1.582210
410000009215,Heaton Road-St Gabriels Avenue,54.989000,-1.582050
410000009216,Corner House,54.991830,-1.584160
410000009217,Newton Road-Holystone Crescent,54.993530,-1.585490
410000009218,Newton Road-Post Office,54.995610,-1.587150
410000009408,Cragside School,54.999160,-1.588650
410000009409,Dovedale Gardens,55.000190,-1.585500
410000009410,Dovedale Gardens - Swaledale Gardens,54.999980,-1.581910
410000009147,High Heaton,54.997360,-1.580630
410000009336,Etherstone Avenue-Cemetery,54.996200,-1.577500
410000009502,Coach Lane-Playing Fields,55.005910,-1.572290
410000009503,Coach Lane-Portrush Way,55.007850,-1.572750
410000024229,Red House Club,54.928067,-1.436182
410000024227,HRavenswood Rd-Rutherford Sq,54.927520,-1.439970
410000024214,Raeburn Road,54.926126,-1.438758
410000024169,Ravenna Road,54.926549,-1.441854
410000024170,Red House Rhondda Road,54.925094,-1.441580
410000024171,Rothwell Road,54.924399,-1.438307
410000024172,Rotherfield Rd-Ravenswood Rd,54.925060,-1.436250
410000024173,Rotherford Rd-Ramillies Rd,54.926560,-1.433640
410000024174,Rotherfield Rd-Rhodesia Rd,54.926710,-1.431690
410000024211,Rhodesia Rd-Riddings Rd,54.927850,-1.427419
410000024878,Rhodesia Road,54.927537,-1.424600
410000024985,Rutherglen Road,54.928491,-1.422688
410000024986,Wiltshire Road,54.928608,-1.417679
410000024148,Witherwack Shops,54.928830,-1.413261
410000024900,Wiltshire Road,54.929334,-1.412663
410000024149,Wembley  Road,54.927829,-1.410578
410000024150,Emsworth Rd-Everton Ln,54.928466,-1.407067
410000024151,Carley Hill Emsworth Rd,54.927862,-1.403212
410000024152,Emsworth Rd-School,54.926668,-1.398801
410000024822,Faber Rd - Bardolph Dr,54.925116,-1.398032
410000024182,Beaumont St-Faber Rd,54.924770,-1.402610
410000024183,Beaumont St-Cato St,54.922570,-1.402400
41000024SG03,Southwick Beaumont Street,54.920170,-1.402450
410000024060,Southwick Rd-Morgan St,54.919473,-1.397686
410000024061,Southwick Rd-Carley Square,54.919123,-1.394854
410000024062,Southwick Rd-Wallace St,54.917726,-1.391422
410000024063,Southwick Rd-Stadium,54.916754,-1.388270
410000024851,Southwick Rd-Howard St,54.915495,-1.384457
410000024906,Wheatsheaf Bus Bay,54.914340,-1.382439
410000024S14,John Street,54.907252,-1.380729
410000024S24,Holmeside,54.904318,-1.384578
410000024939,Sunderland University,54.903719,-1.392431
410000024245,Chester Rd-University,54.903269,-1.394417
410000024489,Sunderland Western Hill,54.902316,-1.397767
410000024246,Chester Rd-Wolseley Terr,54.901730,-1.403197
410000024247,Royal Hospital,54.901136,-1.407251
410000024248,Barnes Rd-Eastfield St,54.899093,-1.414517
410000024249,Chester Rd-Crematorium,54.897627,-1.419104
410000024250,Sunderland Crematorium,54.896200,-1.424033
410000024251,The Broadway-Broadmayne Ave,54.895509,-1.426872
410000024958,Springwell Rd-Broadstairs Crt,54.894166,-1.429172
410000024522,Somerset Rd-Selkirk Sq,54.890888,-1.428015
410000024523,Somerset Road,54.889338,-1.430229
410000024524,Gleneagles Rd-Grindon Ln,54.890550,-1.433964
410000024525,Gleneagles Rd-Galashiels Rd,54.889717,-1.436963
410000029125,Gleneagles Rd-Gainsborough Rd,54.887970,-1.439981
410000029130,Greenwood Road,54.888134,-1.441584
410000024561,Gartland Rd-Greenwood Rd,54.889063,-1.442831
410000024562,Gartland Road,54.889049,-1.446096
410000024563,Gartland Rd-Rosewood Sq,54.888570,-1.450050
410000024564,Hastings Hill Sevenoaks Drive,54.889635,-1.452557
410000029986,Sevenoaks Drive,54.888366,-1.455432
410000029132,Sevenoaks Dr-Woodhurst Grv,54.886775,-1.454413
410000029131,Sevenoaks Dr-Parkstone Cls,54.886997,-1.451984
410000024565,Gartland Road,54.888590,-1.449800
410000024566,Gartland Road,54.889243,-1.445074
410000024567,Greenwood Road,54.888612,-1.441895
410000029129,Gleneagles Rd-Greenwood Rd,54.887700,-1.440585
410000024526,Gleneagles Rd-Gainsborough Rd,54.888430,-1.439449
410000024527,Gleneagles Rd-Galsworthy Rd,54.889871,-1.436317
410000024528,Gleneagles Rd-Grindon Ln,54.890480,-1.434138
410000024532,Grindon Ln-Somerset Rd,54.889170,-1.431157
410000024533,Somerset Rd - Selkirk Sq,54.890968,-1.427902
410000024959,Springwell Rd-Broadstairs Crt,54.894366,-1.429446
410000024261,The Broadway-Broadmayne Ave,54.895313,-1.427676
410000024262,Sunderland Crematorium,54.896535,-1.422849
410000024263,Chester Road-Crematorium,54.898143,-1.417397
410000024264,Chester RoaPriory Grove,54.899387,-1.413646
410000024265,Chester Rd-St Gabriels Ave,54.900358,-1.410265
410000024266,Royal Hospital,54.901299,-1.406667
410000024267,Chester Rd-Croft Ave,54.901848,-1.402629
410000024268,Chester Rd-The Precinct,54.902683,-1.397690
410000024269,The Royalty,54.902459,-1.395620
410000024488,Sunderland Royal Courts,54.902419,-1.391746
410000024S21,Fawcett Street,54.904948,-1.381303
410000024905,Wheatsheaf Dunn House,54.913986,-1.382812
410000024850,Southwick Rd-Howard St,54.915783,-1.385259
410000024033,Southwick Rd-Stadium,54.917108,-1.389351
410000024034,Southwick Rd-Wallace St,54.918212,-1.392982
410000024035,Southwick Rd-Carley Rd,54.919095,-1.394761
410000024036,Southwick Rd-Suddick St,54.919594,-1.398744
41000024SG02,Southwick,54.920170,-1.402450
410000024158,Beaumont St-Cato St,54.922630,-1.402400
410000024922,Carley Hill Faber Rd,54.924994,-1.401148
410000024821,Faber Rd-Carley Hill Rd,54.925128,-1.397547
410000024144,Esworth Rd-School,54.926654,-1.399161
410000024145,Carley Hill Emsworth Rd,54.928018,-1.403534
410000024146,Emsworth Rd-Everton Ln,54.928500,-1.406894
410000024147,Wembley  Road,54.927800,-1.411111
410000024987,Wiltshire Road,54.928611,-1.417210
410000024988,Rutherglen Road,54.928482,-1.422704
410000024877,Rhodesia Road,54.927576,-1.424787
410000024209,Rhodesia Rd-Retford Rd,54.927848,-1.427935
410000024210,Rhodesia Rd-Redhill Rd,54.927018,-1.430468
410000024165,Rotherfield Rd-Riga Square,54.926710,-1.433090
410000015652,Bolam Way-Brinkburn Street,54.971140,-1.579120
410000015528,Walker Road Raby Street,54.968830,-1.576410
410000015530,Walker Road-Solway Street,54.968040,-1.572170
410000015532,Walker Road-Stains Road,54.966340,-1.564680
410000015534,Walker Road-Sandy Crescent,54.965450,-1.560620
410000015536,St Anthonys,54.964910,-1.557000
410000015569,Welbeck Rd Waverdale Ave,54.977180,-1.541180
410000015567,Welbeck Road-Lightbourne Road,54.976700,-1.544270
410000015565,Welbeck Rd Westbourne Ave,54.975930,-1.548920
410000015563,Welbeck Road-Cowen Street,54.975470,-1.551780
410000015613,Scrogg Road-Spinney Terrace,54.975720,-1.554580
410000015611,Scrogg Road-Finsbury Avenue,54.977380,-1.555790
410000009264,Scrogg Rd West Farm Rd,54.980420,-1.557290
410000009265,Sutton Street,54.982600,-1.558750
410000009266,Sutton Street,54.984090,-1.560050
410000009340,Walkergate Metro,54.986340,-1.559110
410000009341,Benfield Road-Hospital,54.989260,-1.560770
410000009342,Benfield School,54.990780,-1.562310
410000009343,Etherstone Avenue,54.998340,-1.569920
410000009135,Benton Road-Dovedale Gardens,54.999960,-1.580300
410000009136,DWP Ainthorpe Gardens,55.001620,-1.579440
410000009137,Benton Road-The Drive,55.005530,-1.577420
410000009138,Benton Road-Manor Place,55.008140,-1.578300
410000009074,Benton Park Road-Benton Lodge Avenue,55.008970,-1.579210
410000009075,Benton Park Road-Trentham Avenue,55.008290,-1.584700
410000009080,HMRC Benton Park View,55.007870,-1.589220
41000042SSIL,Stand L,54.997273,-1.432649
410000042S19,Westoe Road,54.994120,-1.429400
410000042166,Westoe,54.986575,-1.424450
410000042167,Dean Rd-Marlborough St,54.986458,-1.428824
410000017184,Green Ln-Craik Ave,54.969560,-1.441430
410000017185,Green Ln-Brockley Ave,54.968200,-1.446200
410000016312,Dame Flora Robson Ave,54.966210,-1.459440
410000016219,Perth Avenue-Queensland Avenue,54.964600,-1.460340
410000016220,Perth Avenue-Australia Grove,54.963720,-1.461860
410000016221,Brockley Whins South Leam,54.963140,-1.465210
410000016232,Inverness Rd-Youth Club,54.961690,-1.467550
410000016233,Inverness Rd-Skye Grove,54.959780,-1.463780
410000016234,Brockley Whins Link Rd,54.962050,-1.461430
410000016905,Brockley Whins Metro,54.960450,-1.459600
410000016227,Australia Grove-Melbourne Gard,54.962430,-1.460120
410000016228,Australia Grove-Perth Ave,54.963630,-1.461130
410000016218,Perth Ave-Canberra Dr,54.964970,-1.460020
410000017182,Green Ln-Hope St,54.968480,-1.445310
410000017183,Green Ln-Reay Place,54.969380,-1.442450
410000042C04,Chichester,54.986342,-1.430253
410000042169,Dean Rd-John Clay St,54.986471,-1.428385
410000042957,Westoe,54.986583,-1.424403
075071293A,Tarnston Road,54.691370,-1.245980
075071289A,Nookston Close,54.693731,-1.246971
075071301B,Throston Grange Terminus,54.694590,-1.244040
075071221A,Falcon Road,54.697900,-1.243260
075071302A,Anglesey Grove,54.699220,-1.239590
075071222B,Cardigan Grove,54.699660,-1.235380
075071099B,Throston Close,54.699800,-1.231750
075071223A,University Hospital,54.700710,-1.228190
075071225C,Holdforth Road East End,54.701900,-1.224290
075071226B,Richardsons & Westgarth Social Club,54.700400,-1.222140
075071229B,Raby Gardens,54.697150,-1.220530
075071345A,Chester Hotel,54.694340,-1.219650
075071347B,Grainger Street,54.691110,-1.218570
075071284B,Mill House Leisure Centre,54.689340,-1.216760
075071333A,Rium Terrace,54.687260,-1.214360
075071288E,Victoria Rd - Grand Hotel,54.685400,-1.213420
075071291C,"York Rd, South Rd",54.684820,-1.216840
075071130C,Gill Street,54.681570,-1.216650
075071164D,Burn Valley Roundabout,54.678650,-1.216440
075071154F,St Aidans,54.674870,-1.215090
075071061B,Sydenham Road,54.673400,-1.214310
075071144B,Windermere Road,54.670550,-1.212820
075071120A,Stagecoach Depot,54.667280,-1.211690
075071096A,Park View Industrial Estate,54.662310,-1.210200
075071133A,Golden Flatts,54.659640,-1.209460
075071136B,Ripon Close,54.658610,-1.205440
075071058A,Rail Station,54.659050,-1.198450
075071316A,Glaisdale Grove,54.660370,-1.194660
075071045A,Kildale Grove,54.658830,-1.196620
075071294B,Ark Royal Close,54.662320,-1.196440
075071285A,"Warrior Park, The Schooner",54.664600,-1.196460
075071269A,The Vesper House,54.664560,-1.189830
075071250A,Green,54.662340,-1.187530
075071252A,Marine Hotel,54.660650,-1.187390
075071254A,Seaton Bus Station,54.658420,-1.186830
075071141A,Meadowfield Court,54.655910,-1.190670
075071142A,Elizabeth Way Shops,54.655829,-1.194742
075071141B,Meadowfield Court,54.655880,-1.189780
075071054B,De Havilland Way,54.651810,-1.188620
075071256A,The Sports Domes,54.649360,-1.189160
075071257A,Zinc Works Road,54.644030,-1.188770
075071258A,Power Station - Tees Road,54.640450,-1.192310
075071259A,Industrial Estate,54.636940,-1.200090
075071116A,Huntsman Greatham,54.633290,-1.204670
075071117A,Greatham Creek Bridge,54.624780,-1.211390
077072514B,Teesmouth National Nature Reserve,54.619000,-1.214090
077072517A,Pipe Tunnel,54.610850,-1.217790
077072513A,Seal Sands Roundabout,54.606970,-1.217620
077072500A,Community Fire Station,54.604760,-1.217270
077072546B,RSPB Saltholme,54.601770,-1.216780
077072512A,Huntsman Drive,54.596620,-1.214690
077072515A,Holme Fleet,54.590780,-1.219070
077072510A,Saltview Terrace,54.587450,-1.225960
077072846B,The Clarences Kickwall,54.587810,-1.229360
077072509B,War Memorial,54.589680,-1.234790
077072508B,High Clarence Post Office,54.591500,-1.238280
077072507B,Saltholme Close,54.593610,-1.241900
077072506A,Clarence Street,54.595590,-1.243470
077072505B,Haverton Hill Hotel,54.596170,-1.247420
077072504A,St John's Cemetery,54.595900,-1.251290
077072502B,hbc Vehicle Services,54.592420,-1.258700
077072501B,East Gate,54.590220,-1.265940
077072494A,Billingham Reach Industrial Estate,54.588300,-1.267970
077072493B,Cassel Works - Haverton Hill Road,54.581260,-1.271240
077072493A,ICI Nylon Gate,54.582300,-1.270010
077072494B,Billingham Reach Industrial Estate,54.586930,-1.268350
077072501A,East Gate,54.590430,-1.265280
077072502A,hbc Vehicle Services,54.592630,-1.258400
077072504B,St John's Cemetery,54.595820,-1.251680
077072505A,Haverton Hill Hotel,54.596280,-1.246560
077072506B,Clarence Street,54.596140,-1.243880
077072507A,Saltholme Close,54.593240,-1.241580
077072508A,High Clarence Post Office,54.591110,-1.237460
077072509A,War Memorial,54.589320,-1.233910
077072846A,The Clarences Kickwall,54.587500,-1.228430
077072510B,Saltview Terrace,54.587310,-1.226390
077072515B,Holme Fleet,54.591010,-1.218730
077072512B,Huntsman Drive,54.596500,-1.214860
077072546A,RSPB Saltholme,54.602510,-1.216930
077072500B,Community Fire Station,54.603680,-1.217100
077072513B,Seal Sands Roundabout,54.607780,-1.217720
077072514A,Teesmouth National Nature Reserve,54.618810,-1.214240
075071117B,Greatham Creek Bridge,54.625200,-1.211320
075071116B,Huntsman Greatham,54.632800,-1.205100
075071259B,Industrial Estate,54.636360,-1.200910
075071258B,Power Station - Tees Road,54.640570,-1.192020
075071257B,Zinc Works Road,54.644520,-1.188830
075071256B,The Sports Domes,54.649600,-1.189150
075071054A,De Havilland Way,54.652100,-1.188500
075071254E,Seaton Bus Station,54.657870,-1.186630
075071252B,Marine Hotel,54.660510,-1.187360
075071250B,Green,54.662720,-1.187670
075071269B,The Vesper House,54.664500,-1.190300
075071285B,"Warrior Park, The Schooner",54.664750,-1.196040
075071294A,Ark Royal Close,54.662020,-1.195440
075071046A,Warrior Drive South End,54.661110,-1.193660
075071316B,Glaisdale Grove,54.660150,-1.195090
075071136A,Ripon Close,54.658560,-1.204790
075071133B,Golden Flatts,54.659410,-1.209400
075071096B,Park View Industrial Estate,54.663170,-1.210440
075071120B,Stagecoach Depot,54.666650,-1.211480
075071144A,Windermere Road,54.670160,-1.212690
075071061A,Sydenham Road,54.673250,-1.214230
075071154A,St Aidans,54.675980,-1.215550
075071164C,Burn Valley Roundabout,54.678840,-1.216460
075071291A,"York Road, Carlton Street",54.684150,-1.216760
075071292C,"Victoria Road, Yates",54.685330,-1.216000
075071288G,Victoria Road - Grand Hotel,54.685410,-1.213180
075071333B,Rium Terrace,54.687440,-1.214600
075071284A,Mill House Leisure Centre,54.688530,-1.215860
075071347A,Grainger Street,54.691350,-1.218710
075071229A,Raby Gardens,54.696120,-1.220190
075071226A,Richardsons & Westgarth Social Club,54.700150,-1.222060
075071225A,Holdforth Road East End,54.701860,-1.222590
075071223B,University Hospital,54.701030,-1.227180
075071099A,Throston Close,54.699800,-1.231550
075071222A,Cardigan Grove,54.699650,-1.235660
075071302B,Anglesey Grove,54.699050,-1.240490
075071221B,Falcon Road,54.697730,-1.243590
075071301A,Throston Grange Terminus,54.694610,-1.244000
075071052B,Tesco Express,54.692950,-1.243770
075071271A,Aldi,54.691950,-1.241980
075071348A,Burnston Close,54.690550,-1.243810
075071270A,High Tunstall Dunston Road,54.689740,-1.245590
078074773A,"Easington, Rylands Pk",54.549480,-0.850840
078074774C,All Saints' Church,54.551900,-0.849760
078074775A,Tiger Inn,54.552380,-0.856230
078074777B,Foulsyke Farm,54.553520,-0.869440
078074778A,Victoria Garage,54.553940,-0.876730
078074779B,Market Place,54.553710,-0.884910
078074981A,Zetland Road,54.554170,-0.889680
078074939A,"Liverton M, Downe St.",54.552180,-0.899140
078074938A,Cleveland Street,54.550760,-0.901680
078074096B,St Martin's Close,54.549140,-0.901930
078074930B,Liverton Vill Hall,54.533570,-0.901870
078074080B,Liverton Moor-Liverton Road,54.501100,-0.886570
078074764B,Liverton Moor - A171,54.500520,-0.886770
078074761B,The Jolly Sailor Inn,54.501320,-0.921410
078074079A,Freebrough Hill - Freebrough Road,54.507550,-0.934590
078074763A,"Moorsholm, High St.",54.519280,-0.936610
078074079B,Freebrough Hill - Freebrough Road,54.507490,-0.934570
078074762B,Freebrough Hill - A171,54.507230,-0.934480
078074769B,Swindale Lane,54.516180,-0.959160
078074758A,Trout Fishery - Stanghow Road,54.519520,-0.967140
078074757A,Stanghow Community Ctr,54.531220,-0.960350
078074756A,Lingdale High Street,54.536430,-0.959280
078074957B,Hill Croft,54.549690,-0.962600
078074789B,Trout Hall,54.555770,-0.969690
078074082A,"New Skelton, Whitby Close",54.560390,-0.969770
078074818A,Hollybush,54.562300,-0.969140
078074806B,The Hollybush,54.563130,-0.973310
078074980A,"Skelton, Longacre Close",54.567030,-0.974730
078074052A,Skelton ASDA,54.566980,-0.965340
078074980B,"Skelton, Longacre Close",54.567120,-0.974680
078074044B,Skelton Hamsterly Way Tynedale,54.566090,-0.979440
078074062A,Whernside,54.566710,-0.982370
078074810A,Apple Orchard Nurseries,54.567370,-0.999100
078074811B,Corngrave House,54.571900,-1.005040
078074061A,Golf Club,54.575980,-0.985370
078074823B,Hob Hill Close,54.576400,-0.982950
078074822A,"Saltburn, Learning Campus",54.578970,-0.980560
078074821B,Emmanuel Church,54.581760,-0.977250
078074945B,Saltburn Station (B),54.582880,-0.973720
078074821A,Emmanuel Church,54.581930,-0.976300
078074822B,"Saltburn, Learning Campus",54.580060,-0.981330
078074823A,Hob Hill Close,54.576560,-0.982370
078074061B,Golf Club,54.576070,-0.984760
078074811A,Corngrave House,54.571840,-1.005350
078074810B,Apple Orchard Nurseries,54.567420,-0.999230
078074809B,De Brus Centre,54.564120,-0.989880
078074804B,Sterne Cottages,54.560420,-0.987090
078074803C,Skelton Co-Op,54.561470,-0.983980
078074043A,Hillside Medical Centre,54.563230,-0.981580
078074044A,Skelton Hamsterly Way Tynedale,54.566260,-0.979080
078074063A,"E. Cleveland Hosp, WhitecliffeCtr",54.565150,-0.937550
078074003A,East Cleveland Hosp.,54.564890,-0.935910
078074013A,Brentford Court,54.565220,-0.930940
078074085B,Craggs Hall,54.566440,-0.918240
078074793A,Coronation Street,54.564610,-0.909830
078074792B,Carlin How Memorial,54.562940,-0.905940
078074787A,Tyreman Court,54.564100,-0.901040
078074041A,Angling Green,54.566660,-0.899060
078074788A,Skinningrove Square,54.568947,-0.898551
078074041B,Angling Green,54.567050,-0.898990
078074787B,Tyreman Court,54.563900,-0.901110
078074786B,Bank Foot,54.560720,-0.902060
078074785B,Cliff Crescent,54.555850,-0.898110
078074784B,West End Post Office,54.555370,-0.894430
078074783B,Dundas Street,54.554760,-0.891960
078074868A,Ash Grove,54.555520,-0.889630
078074820A,"Loftus, Westfield Way",54.557790,-0.887670
078074051A,Clover Hill Drive,54.556220,-0.886710
078074981B,Zetland Road,54.554190,-0.889740
078074779A,Market Place,54.553720,-0.884760
078074778B,Victoria Garage,54.553870,-0.876210
078074777A,Foulsyke Farm,54.553520,-0.869420
078074775B,Tiger Inn,54.552330,-0.855810
078074774D,All Saints' Church,54.551920,-0.849760
078074970A,Highcliff Grove,54.557400,-0.890300
078074868B,Ash Grove,54.555680,-0.889510
078074783A,Dundas Street,54.554590,-0.891300
078074784A,West End Post Office,54.555410,-0.894610
078074785A,Cliff Crescent,54.555850,-0.898060
078074786A,Bank Foot,54.560740,-0.902260
078074792A,Carlin How Memorial,54.563440,-0.906540
078074793B,Coronation Street,54.564370,-0.908810
078074085A,Craggs Hall,54.566020,-0.917140
078074043B,Hillside Medical Centre,54.563120,-0.981950
078074803B,Skelton Co-Op,54.560800,-0.984180
078074804A,Sterne Cottages,54.560460,-0.986510
078074809A,De Brus Centre,54.563760,-0.989560
078074062B,Whernside,54.566710,-0.982370
078074806A,The Hollybush,54.563090,-0.973720
078074058A,Learning Campus,54.563180,-0.970930
078074058B,Learning Campus,54.563170,-0.970630
078074818C,Hollybush,54.561630,-0.969180
078074082B,"New Skelton, Whitby Close",54.560290,-0.969850
078074789A,Trout Hall,54.556090,-0.970130
078074957A,Hill Croft,54.550440,-0.963290
078074756B,Lingdale High Street,54.536540,-0.959230
078074757B,Stanghow Community Ctr,54.531040,-0.960390
078074758B,Trout Fishery - Stanghow Road,54.519480,-0.967150
078074769A,Swindale Lane,54.516230,-0.959290
078074762A,Freebrough Hill - A171,54.507660,-0.937030
078074761A,The Jolly Sailor Inn,54.501630,-0.921890
078074764A,Liverton Moor - A171,54.500520,-0.886770
078074080A,Moor Gate,54.500910,-0.886310
078074930A,Liverton Vill Hall,54.533410,-0.901830
078074096A,Lantsbery Drive,54.549730,-0.901760
078074938B,Cleveland Street,54.551010,-0.901670
078074939B,"Liverton M, Downe St.",54.552240,-0.898680
410000024S22,Fawcett Street,54.904660,-1.381285
410000024328,Hylton Rd-Erith Terr,54.903667,-1.413984
410000024329,Hylton Rd-Cemetery,54.902826,-1.419110
410000024330,Hylton Rd-Fordham Rd,54.902579,-1.421558
410000024331,Hylton Rd-Hadleigh Rd,54.901974,-1.425550
410000024332,Round Robin,54.901743,-1.430106
410000024333,Hylton Rd-Havelock Hospital,54.901858,-1.432133
410000024334,Hylton Rd-Palgrove Rd,54.901750,-1.435716
410000024335,St Annes,54.900262,-1.440866
410000024853,Portsmouth Rd-Hylton Rd,54.899173,-1.441172
410000024953,Pennywell Shops,54.897250,-1.439353
410000024549,Pennywell Shops,54.895921,-1.440684
410000024550,Parkhurst Road,54.896725,-1.441842
410000024551,Presthope Rd-Portslade Rd,54.895261,-1.444599
410000024552,Presthope Rd-Perivale Rd,54.894098,-1.447705
410000024603,Pennywell Prestbury Road,54.893734,-1.450875
410000024342,Hylton Rd-Penistone Rd,54.895600,-1.450610
410000024955,Hylton Rd-Number 639,54.896200,-1.449560
410000024343,Hylton Rd-Parkhurst Rd,54.897420,-1.447480
410000024344,Hylton Rd-Peasemoor Rd,54.898630,-1.445370
410000024345,St Annes,54.899882,-1.442036
410000024346,Hylton Rd-St Lukes Rd,54.900686,-1.439553
410000024347,Hylton Rd-Palgrove Rd,54.901945,-1.434115
410000024348,Round Robin,54.901719,-1.429623
410000024349,Havelock Council Offices,54.901649,-1.427547
410000024350,Hylton Rd-Fordenbridge Rd,54.902068,-1.425187
410000024351,Hylton Rd-Fordham Rd,54.902609,-1.421150
410000024352,Hylton Rd-Cemetery,54.902934,-1.418450
410000024353,Hylton Rd-Bexley St,54.903734,-1.413559
075071209A,Headland Town Square,54.695950,-1.184040
075071210A,Darlington Street,54.698090,-1.184460
075071211A,Amateur Boxing Club,54.698980,-1.187440
075071205B,Vane Street,54.700490,-1.191290
075071204A,Victoria Arms,54.701470,-1.194010
075071137A,Throston Engine House,54.702140,-1.199560
075071282A,Brunel Close,54.702640,-1.202800
075071153B,Shields Terrace,54.703390,-1.205310
075071203B,Central Estate Methodist Church,54.704650,-1.209150
075071158A,The Wok Inn,54.706610,-1.214700
075071159A,Arkley Crescent,54.707620,-1.217300
075071202A,Brus Shops,54.709330,-1.223240
075071177D,Davison Drive North End,54.708720,-1.228430
075071201B,Cemetery,54.708310,-1.233730
075071200A,Saxon Hotel,54.710530,-1.242170
075071196A,Parkstone Grove,54.713120,-1.246210
075071194B,Bowes Green,54.716170,-1.245920
075071197B,Weymouth Drive,54.714750,-1.243560
075071198B,Ridlington Way,54.712420,-1.240620
075071199B,Goldsmith Avenue,54.711440,-1.236810
075071180B,St John Vianney Catholic Church,54.710230,-1.229690
075071177C,Davison Drive North End,54.708810,-1.227260
075071202B,Brus Shops,54.708730,-1.222280
075071234B,Miers Avenue,54.706820,-1.223220
075071233B,The General Medical Centre,54.705050,-1.223380
075071225B,Holdforth Road East End,54.702590,-1.222800
075071286A,"Regal, Carlton Bingo",54.686410,-1.216760
075071306A,Kinnersley's,54.656780,-1.208120
075071305A,Tata Steel,54.654980,-1.207170
075071304A,Caparo,54.648970,-1.202760
075071020A,Tofts Farm Roundabout,54.647280,-1.200950
075071012A,Tofts Farm East Stadium,54.647610,-1.199560
075071023A,Stadium,54.649940,-1.199710
410000010981,Cobalt Proctor & Gamble,55.021690,-1.507170
410000010989,Quicksilver Way,55.024610,-1.511570
410000010991,Cobalt Business Park-Orange,55.021180,-1.511380
410000010994,Silver Fox Way-Procter & Gamble,55.020120,-1.508210
410000010880,Cobalt Link Road Retail,55.019870,-1.505430
410000010876,Atmel Way,55.016920,-1.500120
410000010342,Silverlink-Kingfisher Way,55.013710,-1.496900
410000010341,Silverlink Retail Park,55.011760,-1.497050
410000010003,Coast Road Embleton Ave,55.006930,-1.509800
410000010016,Willington Square,55.007260,-1.505490
410000010975,Churchill Street-School,55.004240,-1.505580
410000010090,Churchill Street-Perth Gardens,55.002990,-1.504980
410000010091,Churchill Street-Greenside Avenue,55.000390,-1.504000
410000010027,Churchill Street Library,54.997360,-1.503520
410000010958,Tynemouth Road - Ravensworth Street,54.996110,-1.504090
410000010957,Tynemouth Road-Rosehill Road,54.996190,-1.506820
410000010053,Church Bank-Lodge Terrace,54.993470,-1.519060
410000010054,High Street East-Court Building,54.992160,-1.526600
410000010W09,High Street East - Park Road,54.991680,-1.530070
410000009331,Fossway-Rutland Avenue,54.983340,-1.548880
410000009332,Fossway Westbourne Ave,54.982790,-1.553050
410000009333,Fossway - Scrogg Road,54.982010,-1.557750
410000009948,Valentia Avenue,54.981230,-1.562720
410000009021,Walkergate Dep Shields Rd,54.983280,-1.564120
410000009022,Byker Depot Track,54.982600,-1.566760
410000009023,Shields Road-Huddleston Road,54.981550,-1.570770
410000009335,Fossway-Tunstall Avenue,54.978920,-1.570530
410000015B06,Shields Road - Robinson Street,54.977650,-1.577270
410000015B08,Shields Road - Headlam Street,54.976900,-1.582520
410000015503,New Bridge Street-St Dominics,54.974580,-1.597730
41000008NC48,Market Street,54.973100,-1.611730
41000008NC70,Grainger Street,54.972240,-1.614370
41000008NC90,Central Station,54.968740,-1.619250
410000014651,Scotswood Road-College,54.964830,-1.626670
410000014653,Scotswood Road-Dunn Street,54.963620,-1.632690
410000014657,Scotswood Road-Brunel Terrace,54.962780,-1.640780
410000014693,William Armstrong Drive-Monarch Road,54.961790,-1.644610
410000014695,Newcastle Business Park,54.962250,-1.648520
410000014697,Business Park British Airways,54.963150,-1.653000
410000014663,Scotswood Road-Amelia Walk,54.964690,-1.657490
410000014665,Scotswood Road-Whitehouse Road,54.965610,-1.665320
410000014667,Scotswood Road-Paradise,54.965840,-1.669650
410000014669,Whitehouse Enterprise Centre,54.966170,-1.674170
410000014673,Scotswood Road-Vickers,54.967210,-1.682970
410000014676,Scotswood Bridge,54.968140,-1.688810
410000013501,Scotswood Road B&Q,54.970730,-1.696290
410000013503,Scotswood Road-Bells Close,54.972020,-1.700000
410000013905,Kingfisher Boulevard,54.971560,-1.706490
410000013906,Goldcrest Way,54.969340,-1.708990
410000013907,Newburn Riverside Stella House,54.969930,-1.713730
410000013908,Kingfisher Boulevard,54.971230,-1.710310
410000013909,Kingfisher Boulevard,54.971710,-1.706240
410000013507,Scotswood Road-St Georges Terace,54.973660,-1.704840
410000013509,Lemington Tyne View,54.976520,-1.712490
410000013513,Northumberland Road,54.976370,-1.717060
410000013515,Lemington Road-Riverside Way,54.977740,-1.720380
410000013517,Lemington Road-Keats Road,54.979070,-1.727780
410000007036,High Street-Walbottle Road,54.981030,-1.734760
410000007037,High Street-Station Road,54.981790,-1.739410
410000007038,High Street - Church Bank,54.982250,-1.741950
410000007039,Newburn Road-Chapel Court,54.984820,-1.743490
410000007040,Newburn Road-Garage,54.987950,-1.744530
410000007041,Newburn Road-Mayfield Avenue,54.990210,-1.747850
410000007168,Hallow Drive-Newburn Road,54.991100,-1.748710
410000007951,Hallow Drive-The Causeway,54.990620,-1.752640
410000007169,Hallow Drive-Lowgate,54.991280,-1.757330
410000007170,Throckley Leazes Parkway,54.990290,-1.759550
410000007165,Coach Road-Leazes Parkway,54.990380,-1.761200
410000007166,Coach Road-Wellfield Close,54.992830,-1.761690
410000007167,Coach Road-Woodlands,54.994380,-1.761720
410000007016,Hexham Road-Middle School,54.996010,-1.760450
410000007017,Throckley Roundabout,54.995940,-1.756200
410000007049,Throckley Sainsburys,54.994580,-1.752860
410000007050,Newburn Road-Appian Place,54.992030,-1.750130
410000007051,Newburn Road-Mayfield Avenue,54.989790,-1.747480
410000007052,Newburn Road-Garage,54.987850,-1.744410
410000007053,Newburn Road-Park Road,54.984980,-1.743480
410000007054,High Street - Church Bank,54.982180,-1.741830
410000007055,High Street-Church Road,54.981780,-1.739580
410000007056,High Street-Walbottle Road,54.981130,-1.734790
410000013518,Lemington Road-Keats Road,54.978770,-1.726020
410000013516,Lemington Road-Riverside Way,54.977730,-1.720370
410000013514,Northumberland Road,54.976440,-1.715510
410000013510,Lemington Tyne View,54.976420,-1.711950
410000013508,Scotswood Road-St Georges,54.973720,-1.705160
410000013506,Scotswood Road - Bells Close,54.973020,-1.701920
410000013504,Scotswood Road-Bells Close,54.972150,-1.699940
410000013502,Scotswood Road B&Q,54.970760,-1.695850
410000014674,Scotswood Bridge,54.968440,-1.688200
410000014670,Scotswood Road-Vickers,54.967380,-1.683290
410000014668,Whitehouse Enterprise Centre,54.966180,-1.673230
410000014664,Scotswood Road-Whitehouse Road,54.965130,-1.660820
410000014696,Business Park British Airways,54.962940,-1.651980
410000014694,Newcastle Business Park,54.962270,-1.648660
410000014692,William Armstrong Drive-Monarch Road,54.961790,-1.644380
410000014658,Scotswood Road Sanderson St,54.962860,-1.640640
410000014654,Scotswood Road-Park Road,54.963540,-1.633630
410000014652,Scotswood Road-College,54.964900,-1.626890
410000008Q02,Market Street West,54.972860,-1.612930
410000015B03,Shields Road - Edwin Street,54.977110,-1.580950
410000015B05,Shields Road-Robinson Street,54.977700,-1.576950
410000009314,Fossway,54.978840,-1.570820
410000009006,Shields Road-Depot Road,54.981750,-1.570070
410000009007,Byker Depot Track,54.982860,-1.565780
410000009008,Walkergate Dep Shields Rd,54.983260,-1.564180
410000009315,Fossway-Recreation Ground,54.981110,-1.561440
410000009316,Fossway - Scrogg Road,54.981740,-1.558880
410000009317,Fossway-Westbourne Avenue,54.982950,-1.551830
410000009318,Fossway-Courtfield Road,54.983660,-1.546570
410000009933,Maurice Road,54.984560,-1.539780
410000009104,Neptune Road-The Avenue,54.985650,-1.536610
410000009105,Buddle Street-Segedunum,54.987460,-1.533950
410000010W08,High Street East - Laburnum Avenue,54.991400,-1.532230
410000010021,Town Hall,54.992210,-1.526050
410000010022,High Street East-Dene Crescent,54.992770,-1.521220
410000010956,Tynemouth Road l-Angle Terrace,54.996260,-1.507000
410000010955,Churchill Street Library,54.996620,-1.503350
410000010048,Churchill Street-Archer Street,54.998560,-1.503790
410000010092,Churchill Street-Windsor Drive,55.000610,-1.504020
410000010093,Churchill Street-Engine Inn Road,55.003600,-1.505290
410000010017,Coast Road Gibson Street,55.006410,-1.509780
410000010004,Willington Square,55.007770,-1.505750
410000010344,Silverlink Retail Park,55.011650,-1.497080
410000010343,Silverlink-Kingfisher Way,55.014850,-1.497590
410000010877,Cobalt Business Park South,55.015720,-1.500210
410000010875,Atmel Way,55.017020,-1.500190
410000010879,Cobalt Link Road Retail,55.019980,-1.505440
410000010089,Tyne Met Coast Road Campus,55.008150,-1.508130
410000018013,Morrisons Whitburn Rd,54.936683,-1.368698
410000018037,Dykelands Rd-Kings Ave,54.934772,-1.369321
410000018038,Dykelands Rd-Queens Ave,54.934530,-1.372114
410000018039,Dykelands Rd-Deepdene Rd,54.933687,-1.375541
410000024094,Dykelands Rd-Dartford Rd,54.932816,-1.379626
410000024095,Dykelands Rd-Dacre Rd,54.932330,-1.382334
410000017207,Dene Estate,54.934447,-1.386647
410000017209,Dene Dale Rd-Alston De,54.936207,-1.391099
410000017210,Dene Alston Cres-Nu 164,54.934793,-1.391326
410000017211,Dene Alston Cres-Bampton Ave,54.933510,-1.389092
410000024140,Alston Cres-Keswick Ave,54.931837,-1.387264
410000024141,Alston Cres-Nu 20,54.930282,-1.386183
410000024142,Seaburn metro,54.929290,-1.385752
410000024096,Fulwell Blue Bell,54.929155,-1.381472
410000024097,Fulwell Rd-Side Cliff Rd,54.926809,-1.381001
410000024098,Fulwell Rd-Enid Ave,54.924078,-1.380560
410000024099,Fulwell Rd-Sandringham Rd,54.921604,-1.379874
410000024100,Gladstone St-Roker Baths Rd,54.919393,-1.378678
410000024974,Fulwell Rd-Selbourne St,54.917995,-1.378748
410000024810,Fulwell Rd-Retail Pk,54.916205,-1.378943
410000025981,St Peter's Lower Dundas St,54.913968,-1.377201
410000024907,Wheatsheaf Dundas St,54.913325,-1.381618
410000024S12,John Street,54.906724,-1.380624
410000024S25,Holmeside,54.904273,-1.385252
410000024949,Tunstall Rall R,54.900170,-1.388840
410000024468,Thornholme Rd Health Centre,54.898822,-1.390854
410000024469,Thornholme Rd-Beresford Pk,54.897459,-1.394391
410000024272,Durham Rd-Dunelm South,54.895403,-1.398392
410000024929,Barnes Park,54.893057,-1.402122
410000024933,Durham Rd-Bede Cntr,54.891507,-1.408603
410000024274,Durham Rd-Plains Rd,54.889939,-1.413678
410000024275,Prospect Lidl,54.888518,-1.417590
410000024515,Prospect,54.888904,-1.420559
410000024518,Sunningdale Road,54.889047,-1.421913
410000024519,Sunningdale Road,54.888667,-1.423802
410000029108,Silloth Road,54.887385,-1.425241
410000029109,Telford Rd-Toronto Rd,54.885799,-1.428909
410000029984,Close Tord Rd-Tanfield Rd,54.884758,-1.430995
410000029110,Thorndale Rd-Telford Rd,54.883600,-1.431790
410000029111,Thorndale Rd-Thorney Cls Rd,54.881781,-1.431653
410000029113,Tilbury Rd-Thistle Rd,54.882450,-1.435380
410000029114,Tilbury Rd-Thorne Rd,54.881080,-1.436599
410000029115,Tadcaster Road,54.880020,-1.438638
410000029116,Thorney Close Theme Road,54.878367,-1.438995
410000029117,Tadcaster Road,54.880370,-1.438610
410000029118,Thorne Road,54.880695,-1.437364
410000029119,Tilbury Rd-Tay Rd,54.882136,-1.435748
410000029121,Thorndale Rd-Thorney Cls Rd,54.882310,-1.430560
410000029122,Telford Rd-Tanfield Rd,54.884399,-1.431711
410000029123,Telford Rd-Torrens Rd,54.885729,-1.429052
410000029124,Telford Rd-Grindon Ln,54.887243,-1.426059
410000024520,Sunningdale Road,54.888650,-1.424584
410000024521,Sunningdale Road,54.889108,-1.421833
410000024963,Prospect Lidl,54.888670,-1.417553
410000024277,Durham Rd-Ettrick Grove,54.890055,-1.413611
410000024278,Durham Rd-Bede Centre,54.891507,-1.409306
410000024280,Barnes Park,54.893090,-1.403308
410000024281,Durham Rd-Dunelm,54.895147,-1.398714
410000024474,Thornholme Rd-Beechwood Terr,54.897806,-1.393487
410000024475,Thornholme Rd,54.899300,-1.389920
410000024295,Tunstall Rd-Argyle St,54.900413,-1.389038
410000024S18,Fawcett Street,54.906001,-1.381606
410000024S15,Fawcett Street,54.906937,-1.381866
410000024908,Wheatsheaf Roker Ave,54.914942,-1.381133
